<<<<<<< HEAD
[{
    "id": "7129692d-b8b1-4482-a739-cf166c98c0c4",
    "totalQuantity": 20,
    "discount": 67,
    "totalMoney": 60,
    "returnMoney": 3,
    "title": "luctus nec molestie sed justo pellentesque viverra pede ac diam cras pellentesque volutpat dui maecenas tristique",
    "longitude": "121.36998",
    "latitude": "28.58633",
    "address": "7013 Havey Avenue"
}, {
    "id": "c1db0431-5e14-4387-bb21-63738c746592",
    "totalQuantity": 11,
    "discount": 26,
    "totalMoney": 55,
    "returnMoney": 72,
    "title": "dapibus augue vel accumsan tellus nisi eu orci mauris lacinia sapien quis",
    "longitude": "-96.0297",
    "latitude": "36.1398",
    "address": "504 Arkansas Center"
}, {
    "id": "649b7ce2-d392-4fea-9c4e-c71b35c55b33",
    "totalQuantity": 69,
    "discount": 51,
    "totalMoney": 90,
    "returnMoney": 26,
    "title": "bibendum morbi non quam nec dui luctus rutrum nulla tellus in sagittis dui vel nisl duis ac nibh fusce",
    "longitude": "-82.50823",
    "latitude": "22.79274",
    "address": "1260 Meadow Vale Court"
}, {
    "id": "52128109-a5fd-4acb-b4b5-4fe9310e84bc",
    "totalQuantity": 7,
    "discount": 99,
    "totalMoney": 85,
    "returnMoney": 42,
    "title": "neque duis bibendum morbi non quam nec dui luctus rutrum nulla tellus in sagittis dui vel nisl",
    "longitude": "140.01667",
    "latitude": "36.43333",
    "address": "851 Mifflin Court"
}, {
    "id": "a4072853-70c0-49ce-805b-1d2ed9b4b659",
    "totalQuantity": 83,
    "discount": 76,
    "totalMoney": 72,
    "returnMoney": 87,
    "title": "eu interdum eu tincidunt in leo maecenas pulvinar lobortis est phasellus sit amet erat nulla tempus vivamus in felis eu",
    "longitude": "7.177",
    "latitude": "47.8097",
    "address": "19 Ryan Place"
}, {
    "id": "3670f03d-3c0b-4f1f-a04d-5b05733bb6a2",
    "totalQuantity": 37,
    "discount": 35,
    "totalMoney": 48,
    "returnMoney": 58,
    "title": "dapibus augue vel accumsan tellus nisi eu orci mauris lacinia sapien quis libero nullam sit amet turpis elementum ligula vehicula",
    "longitude": "108.1538",
    "latitude": "-7.1252",
    "address": "1320 Acker Street"
}, {
    "id": "97978632-3b38-4ac0-8e54-394987fd5e27",
    "totalQuantity": 20,
    "discount": 38,
    "totalMoney": 49,
    "returnMoney": 93,
    "title": "suscipit ligula in lacus curabitur at ipsum ac tellus semper interdum mauris",
    "longitude": "116.3511",
    "latitude": "-8.7819",
    "address": "73 Bartelt Terrace"
}, {
    "id": "b57fe12f-1215-4751-9056-3ec9961a1093",
    "totalQuantity": 46,
    "discount": 94,
    "totalMoney": 74,
    "returnMoney": 87,
    "title": "vestibulum sit amet cursus id turpis integer aliquet massa id lobortis convallis tortor risus dapibus augue vel",
    "longitude": "-90.80611",
    "latitude": "14.995",
    "address": "0313 Sugar Park"
}, {
    "id": "a7c4df72-6668-46a5-a571-d89ed925afc7",
    "totalQuantity": 1,
    "discount": 83,
    "totalMoney": 33,
    "returnMoney": 54,
    "title": "in quis justo maecenas rhoncus aliquam lacus morbi quis tortor id nulla ultrices aliquet maecenas",
    "longitude": "117.8875",
    "latitude": "39.29417",
    "address": "6234 Granby Terrace"
}, {
    "id": "8ebdb2e6-54d9-4d5e-916b-8a83c4404553",
    "totalQuantity": 90,
    "discount": 60,
    "totalMoney": 49,
    "returnMoney": 78,
    "title": "duis bibendum morbi non quam nec dui luctus rutrum nulla tellus in sagittis",
    "longitude": "116.41777",
    "latitude": "39.9876",
    "address": "5387 Briar Crest Pass"
}, {
    "id": "e30cd915-15f6-4104-a750-c2c4f25e2aed",
    "totalQuantity": 87,
    "discount": 98,
    "totalMoney": 9,
    "returnMoney": 38,
    "title": "in magna bibendum imperdiet nullam orci pede venenatis non sodales sed tincidunt eu felis fusce",
    "longitude": "4.8089",
    "latitude": "43.9483",
    "address": "97033 Schiller Hill"
}, {
    "id": "498574b3-c1e7-4bca-8369-af3ae5b2c533",
    "totalQuantity": 27,
    "discount": 87,
    "totalMoney": 11,
    "returnMoney": 96,
    "title": "sapien iaculis congue vivamus metus arcu adipiscing molestie hendrerit at vulputate vitae nisl aenean lectus pellentesque eget",
    "longitude": "-47.76389",
    "latitude": "-21.01778",
    "address": "763 Fieldstone Plaza"
}, {
    "id": "9de56e87-0081-4057-9eca-0413a18137c1",
    "totalQuantity": 83,
    "discount": 25,
    "totalMoney": 77,
    "returnMoney": 19,
    "title": "suscipit a feugiat et eros vestibulum ac est lacinia nisi venenatis tristique fusce congue diam id",
    "longitude": "11.9294",
    "latitude": "57.6467",
    "address": "9 Shasta Drive"
}, {
    "id": "995d6ff4-4375-42de-8a12-536327a2bcc9",
    "totalQuantity": 71,
    "discount": 71,
    "totalMoney": 16,
    "returnMoney": 80,
    "title": "duis consequat dui nec nisi volutpat eleifend donec ut dolor morbi vel lectus in quam fringilla rhoncus mauris enim leo",
    "longitude": "13.5036",
    "latitude": "59.3793",
    "address": "464 Texas Way"
}, {
    "id": "8704d18d-17b2-402c-964b-16e4a5c4c840",
    "totalQuantity": 92,
    "discount": 10,
    "totalMoney": 91,
    "returnMoney": 31,
    "title": "ridiculus mus etiam vel augue vestibulum rutrum rutrum neque aenean auctor gravida sem",
    "longitude": "-76.43564",
    "latitude": "7.24407",
    "address": "96207 Huxley Junction"
}, {
    "id": "bbc25430-f55e-43c4-868b-4729a7666d1c",
    "totalQuantity": 23,
    "discount": 82,
    "totalMoney": 30,
    "returnMoney": 100,
    "title": "at velit vivamus vel nulla eget eros elementum pellentesque quisque porta volutpat erat quisque erat eros",
    "longitude": "36.57334",
    "latitude": "53.27657",
    "address": "34834 Michigan Trail"
}, {
    "id": "7a6c1d5a-99cc-4c41-9af4-6de77d730910",
    "totalQuantity": 60,
    "discount": 92,
    "totalMoney": 28,
    "returnMoney": 75,
    "title": "hac habitasse platea dictumst etiam faucibus cursus urna ut tellus nulla ut erat id mauris vulputate elementum nullam",
    "longitude": "126.15889",
    "latitude": "9.78417",
    "address": "0537 Jackson Lane"
}, {
    "id": "5d64726a-64a8-4760-a883-1872ac85eb4e",
    "totalQuantity": 96,
    "discount": 82,
    "totalMoney": 1,
    "returnMoney": 61,
    "title": "morbi non quam nec dui luctus rutrum nulla tellus in sagittis dui vel",
    "longitude": "18.0447",
    "latitude": "52.38199",
    "address": "0 Sundown Drive"
}, {
    "id": "0ac2968e-3ba5-4a1b-89ef-02f50f695499",
    "totalQuantity": 80,
    "discount": 23,
    "totalMoney": 98,
    "returnMoney": 19,
    "title": "mauris enim leo rhoncus sed vestibulum sit amet cursus id turpis integer aliquet massa id",
    "longitude": "21.66023",
    "latitude": "49.80996",
    "address": "2822 Sundown Parkway"
}, {
    "id": "a9cd4d17-e2f2-4cf8-8fcc-9f40d91b7d35",
    "totalQuantity": 67,
    "discount": 53,
    "totalMoney": 94,
    "returnMoney": 94,
    "title": "amet sem fusce consequat nulla nisl nunc nisl duis bibendum",
    "longitude": "108.5861",
    "latitude": "-7.4072",
    "address": "437 Pennsylvania Alley"
}, {
    "id": "a63653da-f60a-48ad-8e81-91d506a3331d",
    "totalQuantity": 85,
    "discount": 44,
    "totalMoney": 73,
    "returnMoney": 61,
    "title": "natoque penatibus et magnis dis parturient montes nascetur ridiculus mus vivamus vestibulum sagittis sapien cum sociis natoque penatibus",
    "longitude": "20.64686",
    "latitude": "38.25081",
    "address": "1864 Union Hill"
}, {
    "id": "be5db892-6bd2-42a7-b3a2-9b71041acd44",
    "totalQuantity": 15,
    "discount": 38,
    "totalMoney": 88,
    "returnMoney": 63,
    "title": "lorem quisque ut erat curabitur gravida nisi at nibh in hac habitasse platea dictumst aliquam augue quam sollicitudin vitae",
    "longitude": "111.7314",
    "latitude": "-7.0197",
    "address": "7311 Lyons Trail"
}, {
    "id": "8cab8ef2-6d5a-49d9-8711-02c3a0261fcb",
    "totalQuantity": 50,
    "discount": 49,
    "totalMoney": 36,
    "returnMoney": 33,
    "title": "sodales sed tincidunt eu felis fusce posuere felis sed lacus morbi sem mauris laoreet ut rhoncus aliquet pulvinar sed",
    "longitude": "24",
    "latitude": "37.96667",
    "address": "33161 Laurel Parkway"
}, {
    "id": "114f3edc-fd41-473b-a34b-e78cf1ca995d",
    "totalQuantity": 82,
    "discount": 18,
    "totalMoney": 26,
    "returnMoney": 5,
    "title": "convallis nulla neque libero convallis eget eleifend luctus ultricies eu nibh quisque id justo sit amet sapien dignissim",
    "longitude": "-72.22565",
    "latitude": "-38.66875",
    "address": "2 Village Green Circle"
}, {
    "id": "c8d9a530-15a7-43cb-b415-9719d262eca0",
    "totalQuantity": 49,
    "discount": 72,
    "totalMoney": 44,
    "returnMoney": 86,
    "title": "ac nibh fusce lacus purus aliquet at feugiat non pretium quis lectus",
    "longitude": "35.12682",
    "latitude": "31.87022",
    "address": "471 Dixon Junction"
}, {
    "id": "61ec45d9-42fd-4b09-8f31-6ca356dbf99a",
    "totalQuantity": 90,
    "discount": 89,
    "totalMoney": 31,
    "returnMoney": 13,
    "title": "nisi volutpat eleifend donec ut dolor morbi vel lectus in quam fringilla rhoncus mauris enim leo rhoncus sed",
    "longitude": "38.6",
    "latitude": "7.2",
    "address": "7370 Monterey Point"
}, {
    "id": "54fb695b-36b3-486f-870c-7597ef2649b6",
    "totalQuantity": 65,
    "discount": 37,
    "totalMoney": 28,
    "returnMoney": 51,
    "title": "placerat praesent blandit nam nulla integer pede justo lacinia eget tincidunt eget tempus vel pede morbi porttitor lorem id ligula",
    "longitude": "105.82991",
    "latitude": "30.1782",
    "address": "1 Havey Circle"
}, {
    "id": "bf4cf918-8d28-4880-a332-7616e5ecda80",
    "totalQuantity": 37,
    "discount": 51,
    "totalMoney": 30,
    "returnMoney": 70,
    "title": "nisi nam ultrices libero non mattis pulvinar nulla pede ullamcorper augue a",
    "longitude": "3.33748",
    "latitude": "6.59422",
    "address": "9270 Pleasure Terrace"
}, {
    "id": "db8a3615-f9e8-410e-bc2a-04b075cd218c",
    "totalQuantity": 8,
    "discount": 26,
    "totalMoney": 62,
    "returnMoney": 98,
    "title": "augue vestibulum ante ipsum primis in faucibus orci luctus et ultrices posuere cubilia curae donec pharetra magna vestibulum aliquet",
    "longitude": "-3.6067",
    "latitude": "37.1882",
    "address": "64753 Reinke Road"
}, {
    "id": "bc9bd0d7-caf0-4caf-ab2b-dd71f7ce8028",
    "totalQuantity": 56,
    "discount": 98,
    "totalMoney": 82,
    "returnMoney": 28,
    "title": "amet justo morbi ut odio cras mi pede malesuada in imperdiet et",
    "longitude": "24.75",
    "latitude": "49.18333",
    "address": "1 Pepper Wood Pass"
}, {
    "id": "8163e17d-689f-4863-ba85-49a039a1e46e",
    "totalQuantity": 22,
    "discount": 29,
    "totalMoney": 18,
    "returnMoney": 37,
    "title": "pellentesque quisque porta volutpat erat quisque erat eros viverra eget congue eget semper rutrum",
    "longitude": "113.6087",
    "latitude": "-6.9179",
    "address": "50597 Paget Hill"
}, {
    "id": "ef6e20dc-cd5b-4c1e-8ff8-ef0204c1b6c0",
    "totalQuantity": 22,
    "discount": 17,
    "totalMoney": 1,
    "returnMoney": 10,
    "title": "justo maecenas rhoncus aliquam lacus morbi quis tortor id nulla ultrices aliquet maecenas leo odio",
    "longitude": "122.41667",
    "latitude": "10.68333",
    "address": "222 Village Hill"
}, {
    "id": "764aa8e1-9281-4aea-b3e3-e3a1dca5ad6b",
    "totalQuantity": 15,
    "discount": 75,
    "totalMoney": 55,
    "returnMoney": 66,
    "title": "vitae mattis nibh ligula nec sem duis aliquam convallis nunc",
    "longitude": "121.3775",
    "latitude": "14.3413",
    "address": "9 Vernon Junction"
}, {
    "id": "991765d5-67e3-40a0-9f2f-acee0f4544d7",
    "totalQuantity": 63,
    "discount": 95,
    "totalMoney": 26,
    "returnMoney": 79,
    "title": "congue eget semper rutrum nulla nunc purus phasellus in felis donec semper sapien a libero nam dui proin leo",
    "longitude": "105.7639",
    "latitude": "-6.7616",
    "address": "15903 Morning Circle"
}, {
    "id": "d1bc71a7-3b38-47e3-b42a-e9426eb6b476",
    "totalQuantity": 30,
    "discount": 52,
    "totalMoney": 59,
    "returnMoney": 88,
    "title": "posuere cubilia curae duis faucibus accumsan odio curabitur convallis duis consequat dui nec nisi volutpat eleifend donec",
    "longitude": "-92.975",
    "latitude": "16.0208",
    "address": "51009 Golden Leaf Alley"
}, {
    "id": "1d655fa3-6582-4c60-b36b-4e4a544f0818",
    "totalQuantity": 77,
    "discount": 67,
    "totalMoney": 5,
    "returnMoney": 29,
    "title": "at ipsum ac tellus semper interdum mauris ullamcorper purus sit amet nulla quisque arcu libero rutrum ac lobortis vel",
    "longitude": "3.44919",
    "latitude": "11.88435",
    "address": "84 Oak Valley Way"
}, {
    "id": "0138c403-df6f-4e85-8ee9-d2f6473671b7",
    "totalQuantity": 21,
    "discount": 34,
    "totalMoney": 17,
    "returnMoney": 40,
    "title": "adipiscing elit proin interdum mauris non ligula pellentesque ultrices phasellus id sapien in sapien",
    "longitude": "108.68258",
    "latitude": "28.7817",
    "address": "6764 Pierstorff Place"
}, {
    "id": "3c528077-1f4b-4f27-869c-371bdaf059c2",
    "totalQuantity": 11,
    "discount": 36,
    "totalMoney": 69,
    "returnMoney": 70,
    "title": "aliquam quis turpis eget elit sodales scelerisque mauris sit amet eros suspendisse accumsan",
    "longitude": "19.43091",
    "latitude": "50.70676",
    "address": "94 Vermont Plaza"
}, {
    "id": "5f36817f-139f-4f64-8705-78e9267fed12",
    "totalQuantity": 89,
    "discount": 14,
    "totalMoney": 98,
    "returnMoney": 63,
    "title": "nunc viverra dapibus nulla suscipit ligula in lacus curabitur at ipsum ac",
    "longitude": "96.82032",
    "latitude": "32.26974",
    "address": "0437 Northview Crossing"
}, {
    "id": "4858b39b-7c66-44a0-8ff7-b3abef285f56",
    "totalQuantity": 89,
    "discount": 12,
    "totalMoney": 22,
    "returnMoney": 16,
    "title": "eget massa tempor convallis nulla neque libero convallis eget eleifend luctus ultricies eu nibh quisque id justo sit",
    "longitude": "36.19649",
    "latitude": "35.81151",
    "address": "89 Vidon Circle"
}, {
    "id": "998a744c-8bd8-4ecb-82ca-2bfb7adf07e6",
    "totalQuantity": 72,
    "discount": 76,
    "totalMoney": 85,
    "returnMoney": 41,
    "title": "purus sit amet nulla quisque arcu libero rutrum ac lobortis vel dapibus at diam nam tristique tortor",
    "longitude": "144.75902",
    "latitude": "13.44741",
    "address": "69 Towne Way"
}, {
    "id": "4a5f02e8-c53a-41b3-8b4c-952eeedfa1b4",
    "totalQuantity": 14,
    "discount": 27,
    "totalMoney": 76,
    "returnMoney": 7,
    "title": "est phasellus sit amet erat nulla tempus vivamus in felis eu sapien cursus",
    "longitude": "31.18084",
    "latitude": "-10.21289",
    "address": "4439 Leroy Parkway"
}, {
    "id": "45176283-82ba-48fa-994a-13b7104443c4",
    "totalQuantity": 85,
    "discount": 87,
    "totalMoney": 95,
    "returnMoney": 54,
    "title": "duis at velit eu est congue elementum in hac habitasse platea dictumst morbi vestibulum velit id pretium iaculis",
    "longitude": "106.4161",
    "latitude": "-6.6317",
    "address": "9626 Fulton Crossing"
}, {
    "id": "829bad7e-819c-4bfe-9cb4-c3963fd148e5",
    "totalQuantity": 64,
    "discount": 72,
    "totalMoney": 100,
    "returnMoney": 13,
    "title": "velit donec diam neque vestibulum eget vulputate ut ultrices vel augue vestibulum ante ipsum primis in",
    "longitude": "41.1053",
    "latitude": "55.5281",
    "address": "4 Melvin Center"
}, {
    "id": "f5d695fd-c9a2-4d31-8973-82a16f437d0c",
    "totalQuantity": 31,
    "discount": 38,
    "totalMoney": 5,
    "returnMoney": 48,
    "title": "rutrum nulla nunc purus phasellus in felis donec semper sapien a libero",
    "longitude": "110.84607",
    "latitude": "21.93924",
    "address": "4326 Ridgeway Hill"
}, {
    "id": "8a2c5810-fe6f-48ab-8bd1-a729f9389bec",
    "totalQuantity": 34,
    "discount": 74,
    "totalMoney": 83,
    "returnMoney": 74,
    "title": "elit sodales scelerisque mauris sit amet eros suspendisse accumsan tortor quis turpis sed ante",
    "longitude": "69.44806",
    "latitude": "31.34111",
    "address": "9972 Ridgeview Crossing"
}, {
    "id": "c12355b8-67a2-4cab-9530-37c559e15725",
    "totalQuantity": 65,
    "discount": 31,
    "totalMoney": 15,
    "returnMoney": 89,
    "title": "ipsum ac tellus semper interdum mauris ullamcorper purus sit amet nulla quisque arcu libero rutrum",
    "longitude": "91.6815",
    "latitude": "25.03858",
    "address": "3 Lake View Plaza"
}, {
    "id": "c6876d17-82df-4872-a12a-c85269be2601",
    "totalQuantity": 61,
    "discount": 4,
    "totalMoney": 86,
    "returnMoney": 52,
    "title": "morbi a ipsum integer a nibh in quis justo maecenas rhoncus aliquam lacus morbi",
    "longitude": "103.41338",
    "latitude": "24.50132",
    "address": "8 Loeprich Hill"
}, {
    "id": "091de0ea-1213-46e1-9364-74e3405bbcf5",
    "totalQuantity": 86,
    "discount": 56,
    "totalMoney": 64,
    "returnMoney": 75,
    "title": "fusce posuere felis sed lacus morbi sem mauris laoreet ut rhoncus aliquet pulvinar sed nisl nunc rhoncus",
    "longitude": "32.93333",
    "latitude": "-1.95",
    "address": "606 Northland Parkway"
}, {
    "id": "28ea9200-92d6-421e-8476-0a1fb2a39f8c",
    "totalQuantity": 49,
    "discount": 32,
    "totalMoney": 43,
    "returnMoney": 12,
    "title": "mauris eget massa tempor convallis nulla neque libero convallis eget eleifend luctus ultricies eu",
    "longitude": "16.25931",
    "latitude": "48.95006",
    "address": "9561 Moulton Place"
}, {
    "id": "26f75f2b-4ea1-424a-87db-bd521f155422",
    "totalQuantity": 25,
    "discount": 85,
    "totalMoney": 80,
    "returnMoney": 70,
    "title": "purus eu magna vulputate luctus cum sociis natoque penatibus et magnis dis parturient montes nascetur ridiculus mus vivamus vestibulum",
    "longitude": "36.70394",
    "latitude": "33.74424",
    "address": "2931 Daystar Plaza"
}, {
    "id": "85923af3-0d49-4f2a-834e-09a70df4693c",
    "totalQuantity": 65,
    "discount": 36,
    "totalMoney": 99,
    "returnMoney": 77,
    "title": "nulla suspendisse potenti cras in purus eu magna vulputate luctus cum sociis natoque penatibus et magnis dis parturient",
    "longitude": "119.69004",
    "latitude": "29.41017",
    "address": "1646 Fuller Junction"
}, {
    "id": "33ea5dd0-f3fd-419c-ab53-aa7abe01a4bc",
    "totalQuantity": 15,
    "discount": 26,
    "totalMoney": 93,
    "returnMoney": 87,
    "title": "ipsum primis in faucibus orci luctus et ultrices posuere cubilia curae",
    "longitude": "15.10306",
    "latitude": "44.13083",
    "address": "36 Kinsman Circle"
}, {
    "id": "bd4bd001-122a-4af7-b881-755b9bc4dc48",
    "totalQuantity": 63,
    "discount": 68,
    "totalMoney": 57,
    "returnMoney": 71,
    "title": "neque aenean auctor gravida sem praesent id massa id nisl venenatis lacinia aenean sit amet justo morbi ut odio",
    "longitude": "120.54446",
    "latitude": "32.20467",
    "address": "33 Sherman Point"
}, {
    "id": "312488ec-50df-40b7-be49-909ef03554e1",
    "totalQuantity": 99,
    "discount": 45,
    "totalMoney": 90,
    "returnMoney": 42,
    "title": "semper porta volutpat quam pede lobortis ligula sit amet eleifend",
    "longitude": "108.6573",
    "latitude": "-7.404",
    "address": "205 Eagan Court"
}, {
    "id": "3e817de2-d74e-43e3-8667-e211ac29facf",
    "totalQuantity": 66,
    "discount": 80,
    "totalMoney": 86,
    "returnMoney": 1,
    "title": "iaculis diam erat fermentum justo nec condimentum neque sapien placerat ante nulla justo aliquam quis turpis eget elit",
    "longitude": "17.33437",
    "latitude": "50.47379",
    "address": "84 Hanson Plaza"
}, {
    "id": "4c417055-be96-4398-bc3d-b5eecc9b9c51",
    "totalQuantity": 93,
    "discount": 66,
    "totalMoney": 43,
    "returnMoney": 32,
    "title": "posuere cubilia curae duis faucibus accumsan odio curabitur convallis duis",
    "longitude": "-8.3558",
    "latitude": "41.482",
    "address": "5 Wayridge Place"
}, {
    "id": "0baa4219-1275-48be-aed2-ce346996a306",
    "totalQuantity": 78,
    "discount": 80,
    "totalMoney": 12,
    "returnMoney": 76,
    "title": "turpis nec euismod scelerisque quam turpis adipiscing lorem vitae mattis nibh ligula nec sem duis aliquam convallis nunc",
    "longitude": "104.81667",
    "latitude": "47.41667",
    "address": "00333 Kinsman Avenue"
}, {
    "id": "5a4643a4-3aba-4aef-9b66-84a5299d3052",
    "totalQuantity": 48,
    "discount": 37,
    "totalMoney": 64,
    "returnMoney": 77,
    "title": "semper porta volutpat quam pede lobortis ligula sit amet eleifend pede libero quis",
    "longitude": "9.0203",
    "latitude": "33.46632",
    "address": "09092 Truax Crossing"
}, {
    "id": "de6dbd02-e8e6-4d4c-adfd-c5a81c937845",
    "totalQuantity": 3,
    "discount": 89,
    "totalMoney": 12,
    "returnMoney": 43,
    "title": "ligula in lacus curabitur at ipsum ac tellus semper interdum mauris ullamcorper purus sit",
    "longitude": "21.16156",
    "latitude": "56.16314",
    "address": "08958 Springs Street"
}, {
    "id": "4ae19ea9-bc91-4b94-985c-6e6fdee64316",
    "totalQuantity": 6,
    "discount": 84,
    "totalMoney": 55,
    "returnMoney": 32,
    "title": "ac enim in tempor turpis nec euismod scelerisque quam turpis adipiscing lorem vitae mattis nibh ligula nec sem",
    "longitude": "-80.01517",
    "latitude": "-6.54157",
    "address": "6999 Westridge Crossing"
}, {
    "id": "c0c5e923-42af-4d10-a4cb-35cfc5da6e03",
    "totalQuantity": 28,
    "discount": 37,
    "totalMoney": 63,
    "returnMoney": 82,
    "title": "consequat varius integer ac leo pellentesque ultrices mattis odio donec vitae",
    "longitude": "18.42322",
    "latitude": "-33.92584",
    "address": "296 Cascade Street"
}, {
    "id": "51e43194-c2d6-4a87-bf43-a05bc68fb23a",
    "totalQuantity": 83,
    "discount": 76,
    "totalMoney": 13,
    "returnMoney": 44,
    "title": "suscipit nulla elit ac nulla sed vel enim sit amet nunc viverra dapibus nulla",
    "longitude": "48.02861",
    "latitude": "29.33278",
    "address": "6721 Clove Place"
}, {
    "id": "1cc9a35c-e420-49c0-970d-cf1265bd7c6e",
    "totalQuantity": 60,
    "discount": 81,
    "totalMoney": 49,
    "returnMoney": 20,
    "title": "sem praesent id massa id nisl venenatis lacinia aenean sit amet justo morbi ut odio cras",
    "longitude": "106.00312",
    "latitude": "33.03648",
    "address": "7547 6th Trail"
}, {
    "id": "2e68c16b-9d2b-4884-a2ab-db4415996016",
    "totalQuantity": 2,
    "discount": 37,
    "totalMoney": 21,
    "returnMoney": 40,
    "title": "sit amet consectetuer adipiscing elit proin risus praesent lectus vestibulum quam sapien varius ut blandit non interdum in ante vestibulum",
    "longitude": "37.98333",
    "latitude": "8.53333",
    "address": "4348 Lien Drive"
}, {
    "id": "e6fc493e-da64-4e9a-9280-bc26671ca8fa",
    "totalQuantity": 12,
    "discount": 35,
    "totalMoney": 57,
    "returnMoney": 32,
    "title": "a pede posuere nonummy integer non velit donec diam neque vestibulum eget",
    "longitude": "-66.00734",
    "latitude": "9.21554",
    "address": "801 Crescent Oaks Avenue"
}, {
    "id": "5e78fd72-5ba6-4df8-9da2-96bd73f88d3f",
    "totalQuantity": 39,
    "discount": 50,
    "totalMoney": 2,
    "returnMoney": 2,
    "title": "aliquet at feugiat non pretium quis lectus suspendisse potenti in eleifend quam a odio in hac habitasse platea dictumst",
    "longitude": "17.8121",
    "latitude": "59.291",
    "address": "4081 Schurz Alley"
}, {
    "id": "57a5ed82-33f2-4ac4-8c02-446a7cb877b2",
    "totalQuantity": 38,
    "discount": 41,
    "totalMoney": 54,
    "returnMoney": 28,
    "title": "at nulla suspendisse potenti cras in purus eu magna vulputate luctus cum sociis natoque penatibus et magnis",
    "longitude": "70.40061",
    "latitude": "37.05643",
    "address": "1327 John Wall Drive"
}, {
    "id": "56f3f214-011b-407d-b1cb-1097a0443cb6",
    "totalQuantity": 78,
    "discount": 25,
    "totalMoney": 7,
    "returnMoney": 47,
    "title": "etiam justo etiam pretium iaculis justo in hac habitasse platea dictumst etiam faucibus cursus urna ut tellus nulla ut erat",
    "longitude": "36.73828",
    "latitude": "36.56253",
    "address": "4 Ludington Way"
}, {
    "id": "edd37355-33e1-401b-9036-89b692691db9",
    "totalQuantity": 89,
    "discount": 40,
    "totalMoney": 64,
    "returnMoney": 63,
    "title": "amet diam in magna bibendum imperdiet nullam orci pede venenatis",
    "longitude": "100.33334",
    "latitude": "13.78851",
    "address": "886 Butternut Crossing"
}, {
    "id": "452b00fe-376a-4dc9-b1ff-4cc5325281ae",
    "totalQuantity": 6,
    "discount": 34,
    "totalMoney": 79,
    "returnMoney": 21,
    "title": "ultrices posuere cubilia curae nulla dapibus dolor vel est donec odio justo sollicitudin ut suscipit",
    "longitude": "-4.40598",
    "latitude": "31.49442",
    "address": "38182 Westerfield Plaza"
}, {
    "id": "df4dc11c-a491-4ce0-8add-5b40b4978368",
    "totalQuantity": 7,
    "discount": 72,
    "totalMoney": 41,
    "returnMoney": 93,
    "title": "dictumst etiam faucibus cursus urna ut tellus nulla ut erat id mauris vulputate elementum nullam varius",
    "longitude": "24.44685",
    "latitude": "36.72506",
    "address": "8 Oriole Point"
}, {
    "id": "ca0234c0-d567-4dec-b730-ee16181699f8",
    "totalQuantity": 93,
    "discount": 100,
    "totalMoney": 62,
    "returnMoney": 53,
    "title": "congue risus semper porta volutpat quam pede lobortis ligula sit amet eleifend pede",
    "longitude": "2.3561",
    "latitude": "48.8322",
    "address": "24631 Stoughton Circle"
}, {
    "id": "a33827c4-cbb6-442b-adbd-a9298f624a0d",
    "totalQuantity": 27,
    "discount": 35,
    "totalMoney": 65,
    "returnMoney": 56,
    "title": "pede justo lacinia eget tincidunt eget tempus vel pede morbi porttitor lorem id ligula suspendisse ornare consequat lectus",
    "longitude": "2.2002",
    "latitude": "49.3287",
    "address": "33 Hoard Pass"
}, {
    "id": "b60d7afa-a8c8-4dc4-b426-968c45e97591",
    "totalQuantity": 73,
    "discount": 81,
    "totalMoney": 40,
    "returnMoney": 85,
    "title": "massa donec dapibus duis at velit eu est congue elementum in hac habitasse platea dictumst morbi",
    "longitude": "-74.08175",
    "latitude": "4.60971",
    "address": "049 Milwaukee Center"
}, {
    "id": "fee94764-5b9f-466c-a714-ec095bb7e129",
    "totalQuantity": 17,
    "discount": 81,
    "totalMoney": 74,
    "returnMoney": 43,
    "title": "vel ipsum praesent blandit lacinia erat vestibulum sed magna at nunc commodo placerat praesent blandit nam",
    "longitude": "112.17629",
    "latitude": "23.91952",
    "address": "248 Cascade Plaza"
}, {
    "id": "a72af435-2ca0-4073-b3f8-b4c8ee704317",
    "totalQuantity": 24,
    "discount": 44,
    "totalMoney": 25,
    "returnMoney": 93,
    "title": "est lacinia nisi venenatis tristique fusce congue diam id ornare imperdiet sapien urna pretium",
    "longitude": "-47.72944",
    "latitude": "-21.34028",
    "address": "7736 Anthes Parkway"
}, {
    "id": "550029c7-4e17-4981-b125-4e979db800e2",
    "totalQuantity": 65,
    "discount": 53,
    "totalMoney": 16,
    "returnMoney": 72,
    "title": "nulla sed vel enim sit amet nunc viverra dapibus nulla suscipit ligula in lacus curabitur at ipsum ac tellus semper",
    "longitude": "115.0574",
    "latitude": "28.22598",
    "address": "102 Dawn Crossing"
}, {
    "id": "2bb14d9b-f6b2-4f98-a0a1-229d9aeef0b4",
    "totalQuantity": 30,
    "discount": 14,
    "totalMoney": 73,
    "returnMoney": 16,
    "title": "neque aenean auctor gravida sem praesent id massa id nisl venenatis lacinia aenean sit amet justo morbi ut",
    "longitude": "139.07639",
    "latitude": "35.99028",
    "address": "312 Anderson Trail"
}, {
    "id": "e11ce2d8-f479-4d9a-bda5-f150fb416652",
    "totalQuantity": 23,
    "discount": 96,
    "totalMoney": 43,
    "returnMoney": 38,
    "title": "erat quisque erat eros viverra eget congue eget semper rutrum nulla nunc purus phasellus",
    "longitude": "-73.60948",
    "latitude": "45.46698",
    "address": "26817 Blue Bill Park Court"
}, {
    "id": "c8a04264-f653-4d73-bcfd-601af07e631d",
    "totalQuantity": 87,
    "discount": 93,
    "totalMoney": 11,
    "returnMoney": 8,
    "title": "venenatis tristique fusce congue diam id ornare imperdiet sapien urna pretium nisl ut volutpat sapien arcu sed",
    "longitude": "120.80056",
    "latitude": "14.23306",
    "address": "9 American Avenue"
}, {
    "id": "b8d240eb-037a-4fd0-a9b5-c72799e67017",
    "totalQuantity": 56,
    "discount": 96,
    "totalMoney": 18,
    "returnMoney": 38,
    "title": "at feugiat non pretium quis lectus suspendisse potenti in eleifend quam a odio",
    "longitude": "38.26188",
    "latitude": "55.42112",
    "address": "4 Amoth Center"
}, {
    "id": "c629c97b-80f3-4fbf-b472-3c97e0fa1889",
    "totalQuantity": 80,
    "discount": 23,
    "totalMoney": 39,
    "returnMoney": 12,
    "title": "neque vestibulum eget vulputate ut ultrices vel augue vestibulum ante ipsum primis in faucibus orci luctus et",
    "longitude": "12.5655",
    "latitude": "55.6759",
    "address": "4276 Wayridge Road"
}, {
    "id": "7250372e-6920-4e29-ab92-5460adf89593",
    "totalQuantity": 66,
    "discount": 5,
    "totalMoney": 3,
    "returnMoney": 84,
    "title": "molestie nibh in lectus pellentesque at nulla suspendisse potenti cras in purus eu",
    "longitude": "117.56378",
    "latitude": "39.25854",
    "address": "6 Armistice Point"
}, {
    "id": "252c1939-6cd2-4023-9d13-0639d85434fa",
    "totalQuantity": 26,
    "discount": 73,
    "totalMoney": 17,
    "returnMoney": 52,
    "title": "sit amet cursus id turpis integer aliquet massa id lobortis convallis tortor",
    "longitude": "74.07897",
    "latitude": "32.57284",
    "address": "8 Red Cloud Way"
}, {
    "id": "9836bf4a-0c8a-4bab-a934-8c892134204b",
    "totalQuantity": 10,
    "discount": 33,
    "totalMoney": 98,
    "returnMoney": 67,
    "title": "pede lobortis ligula sit amet eleifend pede libero quis orci nullam molestie nibh in",
    "longitude": "107.63477",
    "latitude": "-2.73353",
    "address": "99691 Maple Wood Pass"
}, {
    "id": "0193e382-b2f5-41dc-b1e6-703016ac34b2",
    "totalQuantity": 68,
    "discount": 21,
    "totalMoney": 55,
    "returnMoney": 58,
    "title": "elementum ligula vehicula consequat morbi a ipsum integer a nibh in quis",
    "longitude": "112.64349",
    "latitude": "-8.15631",
    "address": "4346 Hagan Lane"
}, {
    "id": "1133edc0-d030-44df-aa29-a6abed1e8189",
    "totalQuantity": 52,
    "discount": 92,
    "totalMoney": 10,
    "returnMoney": 57,
    "title": "suspendisse potenti nullam porttitor lacus at turpis donec posuere metus",
    "longitude": "-9.3718",
    "latitude": "38.7564",
    "address": "658 Mendota Lane"
}, {
    "id": "848d3d59-6f07-44d8-bf17-cb614ba0aea3",
    "totalQuantity": 70,
    "discount": 16,
    "totalMoney": 100,
    "returnMoney": 100,
    "title": "morbi non lectus aliquam sit amet diam in magna bibendum imperdiet nullam",
    "longitude": "117.08306",
    "latitude": "39.47778",
    "address": "8352 Crescent Oaks Avenue"
}, {
    "id": "dba17ddb-af88-4568-bbff-0c02dcce797c",
    "totalQuantity": 78,
    "discount": 44,
    "totalMoney": 66,
    "returnMoney": 78,
    "title": "cubilia curae duis faucibus accumsan odio curabitur convallis duis consequat dui nec nisi volutpat eleifend donec ut dolor morbi vel",
    "longitude": "90.84989",
    "latitude": "23.1006",
    "address": "9383 Texas Alley"
}, {
    "id": "34600c2e-69ec-43eb-a2f4-601e1e067506",
    "totalQuantity": 13,
    "discount": 54,
    "totalMoney": 33,
    "returnMoney": 95,
    "title": "donec vitae nisi nam ultrices libero non mattis pulvinar nulla",
    "longitude": "31.61624",
    "latitude": "22.3457",
    "address": "943 Pennsylvania Circle"
}, {
    "id": "a055b528-99f8-4ca0-9769-f494a764eb42",
    "totalQuantity": 92,
    "discount": 3,
    "totalMoney": 47,
    "returnMoney": 3,
    "title": "ac nibh fusce lacus purus aliquet at feugiat non pretium quis lectus",
    "longitude": "13.79473",
    "latitude": "50.37009",
    "address": "86638 Scofield Plaza"
}, {
    "id": "c2045bea-55a9-4898-bc25-b907c2a41c79",
    "totalQuantity": 80,
    "discount": 33,
    "totalMoney": 60,
    "returnMoney": 53,
    "title": "posuere felis sed lacus morbi sem mauris laoreet ut rhoncus aliquet pulvinar sed nisl nunc rhoncus dui vel sem sed",
    "longitude": "-39.57861",
    "latitude": "-3.49444",
    "address": "7071 Merry Hill"
}, {
    "id": "d705c33e-5665-413c-aa5d-8286fded32b7",
    "totalQuantity": 69,
    "discount": 40,
    "totalMoney": 17,
    "returnMoney": 22,
    "title": "orci vehicula condimentum curabitur in libero ut massa volutpat convallis morbi odio",
    "longitude": "57.3552",
    "latitude": "51.4781",
    "address": "4 Chive Park"
}, {
    "id": "ebc37972-a3a9-4853-be32-3253b5a27c09",
    "totalQuantity": 15,
    "discount": 65,
    "totalMoney": 7,
    "returnMoney": 40,
    "title": "rhoncus aliquam lacus morbi quis tortor id nulla ultrices aliquet maecenas leo odio condimentum id luctus nec molestie",
    "longitude": "2.2029",
    "latitude": "48.846",
    "address": "5943 Melvin Hill"
}, {
    "id": "1892e421-b12d-48d2-bc07-bdd94ae9ae67",
    "totalQuantity": 81,
    "discount": 59,
    "totalMoney": 24,
    "returnMoney": 7,
    "title": "maecenas tristique est et tempus semper est quam pharetra magna ac",
    "longitude": "-51.15",
    "latitude": "-29.83333",
    "address": "7704 Cody Parkway"
}, {
    "id": "8832c52c-268c-4caa-92ae-96d5bdd2cb68",
    "totalQuantity": 64,
    "discount": 26,
    "totalMoney": 92,
    "returnMoney": 76,
    "title": "orci pede venenatis non sodales sed tincidunt eu felis fusce posuere felis sed lacus morbi sem mauris",
    "longitude": "125.35722",
    "latitude": "6.74972",
    "address": "8 Farragut Way"
}, {
    "id": "b0d471b3-36fa-43a3-a6ba-964de2f3fe41",
    "totalQuantity": 34,
    "discount": 45,
    "totalMoney": 32,
    "returnMoney": 100,
    "title": "neque aenean auctor gravida sem praesent id massa id nisl venenatis lacinia aenean sit amet",
    "longitude": "-52.605",
    "latitude": "-23.66333",
    "address": "901 Parkside Lane"
}, {
    "id": "1f03600a-41b2-4f88-9c25-f9e9cbe80bc5",
    "totalQuantity": 43,
    "discount": 28,
    "totalMoney": 41,
    "returnMoney": 68,
    "title": "iaculis diam erat fermentum justo nec condimentum neque sapien placerat ante nulla justo aliquam quis turpis",
    "longitude": "104.1217",
    "latitude": "56.5768",
    "address": "000 Mayer Terrace"
}, {
    "id": "75206900-e4b7-4d5c-adf7-d1b330dc330c",
    "totalQuantity": 34,
    "discount": 51,
    "totalMoney": 67,
    "returnMoney": 6,
    "title": "lobortis convallis tortor risus dapibus augue vel accumsan tellus nisi eu orci mauris lacinia sapien quis libero",
    "longitude": "41.89667",
    "latitude": "45.80529",
    "address": "1 Dryden Alley"
}, {
    "id": "bcb36cc7-c4c4-4df6-8dff-c57ab8c7ae08",
    "totalQuantity": 99,
    "discount": 4,
    "totalMoney": 85,
    "returnMoney": 89,
    "title": "pede justo lacinia eget tincidunt eget tempus vel pede morbi",
    "longitude": "17.3257",
    "latitude": "62.487",
    "address": "690 Lukken Junction"
}, {
    "id": "305ed6d1-aa79-497c-81bc-603346ef27f0",
    "totalQuantity": 84,
    "discount": 14,
    "totalMoney": 48,
    "returnMoney": 9,
    "title": "tortor quis turpis sed ante vivamus tortor duis mattis egestas metus",
    "longitude": "2.3607",
    "latitude": "48.8147",
    "address": "82 Marquette Pass"
}, {
    "id": "38759bea-55bc-4033-b0dd-c72bda2cd609",
    "totalQuantity": 66,
    "discount": 23,
    "totalMoney": 58,
    "returnMoney": 66,
    "title": "posuere metus vitae ipsum aliquam non mauris morbi non lectus aliquam sit amet diam in magna bibendum imperdiet nullam",
    "longitude": "-8.8167",
    "latitude": "39.8167",
    "address": "78 Sloan Hill"
}, {
    "id": "cf2326fb-9e6f-4b39-854e-41dc14cc1676",
    "totalQuantity": 81,
    "discount": 26,
    "totalMoney": 39,
    "returnMoney": 16,
    "title": "lobortis est phasellus sit amet erat nulla tempus vivamus in felis eu sapien cursus vestibulum",
    "longitude": "-87.37417",
    "latitude": "13.20056",
    "address": "2155 Warbler Avenue"
}, {
    "id": "4f0c890e-ab4d-428b-b210-65eb9e753406",
    "totalQuantity": 48,
    "discount": 24,
    "totalMoney": 3,
    "returnMoney": 7,
    "title": "a libero nam dui proin leo odio porttitor id consequat in consequat ut nulla sed accumsan felis ut at",
    "longitude": "77.36649",
    "latitude": "39.81582",
    "address": "223 Algoma Court"
}, {
    "id": "b1756cef-b419-4991-805b-676a67e174ac",
    "totalQuantity": 25,
    "discount": 60,
    "totalMoney": 92,
    "returnMoney": 25,
    "title": "metus vitae ipsum aliquam non mauris morbi non lectus aliquam sit amet diam in magna",
    "longitude": "119.27492",
    "latitude": "29.91379",
    "address": "5 3rd Parkway"
}, {
    "id": "bd045ba4-0ffb-4f5b-b146-bdbc1210177b",
    "totalQuantity": 48,
    "discount": 9,
    "totalMoney": 28,
    "returnMoney": 18,
    "title": "convallis morbi odio odio elementum eu interdum eu tincidunt in leo maecenas pulvinar lobortis est phasellus sit amet erat nulla",
    "longitude": "-75.43333",
    "latitude": "6.03131",
    "address": "0 Bartelt Lane"
}, {
    "id": "e6882297-26dc-49b3-a3ef-36ecc764acea",
    "totalQuantity": 62,
    "discount": 97,
    "totalMoney": 1,
    "returnMoney": 91,
    "title": "augue vel accumsan tellus nisi eu orci mauris lacinia sapien quis libero nullam sit amet turpis elementum ligula vehicula consequat",
    "longitude": "22.78333",
    "latitude": "63.15",
    "address": "5489 Towne Parkway"
}, {
    "id": "38c53ec1-391b-4813-901c-278f2733947b",
    "totalQuantity": 31,
    "discount": 32,
    "totalMoney": 3,
    "returnMoney": 73,
    "title": "turpis elementum ligula vehicula consequat morbi a ipsum integer a nibh",
    "longitude": "117.644",
    "latitude": "25.5969",
    "address": "0 Moulton Road"
}, {
    "id": "76cea1b3-ba56-408a-9545-fefec85a8b63",
    "totalQuantity": 65,
    "discount": 39,
    "totalMoney": 85,
    "returnMoney": 90,
    "title": "morbi quis tortor id nulla ultrices aliquet maecenas leo odio condimentum id luctus nec molestie sed justo pellentesque viverra",
    "longitude": "-71.53077",
    "latitude": "19.24513",
    "address": "7 Union Avenue"
}, {
    "id": "fcd31f22-ebea-4d64-b0fc-1ed03fefcf04",
    "totalQuantity": 70,
    "discount": 81,
    "totalMoney": 58,
    "returnMoney": 5,
    "title": "id massa id nisl venenatis lacinia aenean sit amet justo morbi ut odio",
    "longitude": "116.81044",
    "latitude": "28.79341",
    "address": "98475 Commercial Pass"
}, {
    "id": "61b3681a-fad1-46e5-8a99-e643eca74c35",
    "totalQuantity": 2,
    "discount": 15,
    "totalMoney": 55,
    "returnMoney": 73,
    "title": "posuere cubilia curae nulla dapibus dolor vel est donec odio justo sollicitudin",
    "longitude": "-90.48056",
    "latitude": "14.96417",
    "address": "718 Linden Street"
}, {
    "id": "4cc574b8-7cde-4c57-ac45-bf61a93e39c3",
    "totalQuantity": 39,
    "discount": 88,
    "totalMoney": 49,
    "returnMoney": 30,
    "title": "id lobortis convallis tortor risus dapibus augue vel accumsan tellus nisi eu orci mauris lacinia sapien quis libero nullam",
    "longitude": "116.95252",
    "latitude": "25.02654",
    "address": "075 Hallows Parkway"
}, {
    "id": "2b8a47a7-ae19-43b2-927d-9baa3b420797",
    "totalQuantity": 48,
    "discount": 95,
    "totalMoney": 69,
    "returnMoney": 41,
    "title": "montes nascetur ridiculus mus vivamus vestibulum sagittis sapien cum sociis natoque penatibus et magnis dis parturient montes",
    "longitude": "-77.9",
    "latitude": "-6.37306",
    "address": "63 Burrows Circle"
}, {
    "id": "0c7fe584-b66d-4f7f-a954-4c10eca822c5",
    "totalQuantity": 47,
    "discount": 92,
    "totalMoney": 30,
    "returnMoney": 71,
    "title": "vestibulum sit amet cursus id turpis integer aliquet massa id lobortis convallis tortor risus dapibus augue vel accumsan tellus nisi",
    "longitude": "112.1067",
    "latitude": "-8.1783",
    "address": "7123 Meadow Ridge Center"
}, {
    "id": "357665ec-e2f3-4410-b515-5d6db41ddeae",
    "totalQuantity": 79,
    "discount": 96,
    "totalMoney": 50,
    "returnMoney": 80,
    "title": "luctus et ultrices posuere cubilia curae donec pharetra magna vestibulum aliquet ultrices erat tortor sollicitudin mi sit amet lobortis",
    "longitude": "14.95188",
    "latitude": "51.48053",
    "address": "591 Meadow Vale Lane"
}, {
    "id": "5b6bb7eb-6002-4590-8f8d-ed2213ae2488",
    "totalQuantity": 54,
    "discount": 22,
    "totalMoney": 99,
    "returnMoney": 37,
    "title": "maecenas tincidunt lacus at velit vivamus vel nulla eget eros elementum pellentesque quisque",
    "longitude": "102.80301",
    "latitude": "26.14543",
    "address": "86 Artisan Park"
}, {
    "id": "06d46c24-ede6-4930-8f9c-f32395b6ea2d",
    "totalQuantity": 38,
    "discount": 71,
    "totalMoney": 29,
    "returnMoney": 75,
    "title": "tortor sollicitudin mi sit amet lobortis sapien sapien non mi integer ac neque duis bibendum morbi non quam nec dui",
    "longitude": "111.9427",
    "latitude": "-8.177",
    "address": "79 School Street"
}, {
    "id": "9905e185-83d0-4d0f-b090-33bc17546774",
    "totalQuantity": 39,
    "discount": 25,
    "totalMoney": 35,
    "returnMoney": 23,
    "title": "blandit non interdum in ante vestibulum ante ipsum primis in faucibus orci luctus et ultrices posuere cubilia curae duis",
    "longitude": "-63.75935",
    "latitude": "-31.6477",
    "address": "7452 Surrey Place"
}, {
    "id": "1db177a1-d81f-4742-881b-ca473c3cc232",
    "totalQuantity": 7,
    "discount": 61,
    "totalMoney": 69,
    "returnMoney": 20,
    "title": "nunc nisl duis bibendum felis sed interdum venenatis turpis enim blandit mi in porttitor pede justo eu massa donec dapibus",
    "longitude": "108.204",
    "latitude": "-7.2786",
    "address": "80896 Northland Drive"
}, {
    "id": "2ee8b0aa-e138-4e1e-b86b-6d33f1175aac",
    "totalQuantity": 28,
    "discount": 55,
    "totalMoney": 67,
    "returnMoney": 36,
    "title": "ante ipsum primis in faucibus orci luctus et ultrices posuere cubilia curae donec pharetra magna vestibulum aliquet",
    "longitude": "108.61406",
    "latitude": "34.10241",
    "address": "5 Waubesa Circle"
}, {
    "id": "c51c59f1-dd76-47a2-abb6-b3569516e833",
    "totalQuantity": 34,
    "discount": 48,
    "totalMoney": 41,
    "returnMoney": 8,
    "title": "massa donec dapibus duis at velit eu est congue elementum in hac habitasse platea dictumst",
    "longitude": "113.34684",
    "latitude": "23.15888",
    "address": "3505 Shelley Plaza"
}, {
    "id": "f1b34fb5-6561-45e2-a9fc-3b8412292160",
    "totalQuantity": 50,
    "discount": 89,
    "totalMoney": 60,
    "returnMoney": 31,
    "title": "rhoncus mauris enim leo rhoncus sed vestibulum sit amet cursus id turpis integer aliquet massa id",
    "longitude": "-75.64722",
    "latitude": "-11.26527",
    "address": "5 Pine View Pass"
}, {
    "id": "ee9109c8-9052-44f0-9cf1-471886144a1f",
    "totalQuantity": 48,
    "discount": 5,
    "totalMoney": 51,
    "returnMoney": 23,
    "title": "congue diam id ornare imperdiet sapien urna pretium nisl ut volutpat sapien arcu sed augue aliquam erat",
    "longitude": "115.7444",
    "latitude": "25.2407",
    "address": "99096 Forest Avenue"
}, {
    "id": "5f89df4b-f642-4dbd-80b7-9536e2854d07",
    "totalQuantity": 95,
    "discount": 73,
    "totalMoney": 9,
    "returnMoney": 91,
    "title": "est congue elementum in hac habitasse platea dictumst morbi vestibulum velit id pretium iaculis diam erat fermentum justo nec",
    "longitude": "107.066",
    "latitude": "-7.2961",
    "address": "9068 Gulseth Alley"
}, {
    "id": "a584e082-2fad-4605-9447-6699e9074816",
    "totalQuantity": 82,
    "discount": 21,
    "totalMoney": 43,
    "returnMoney": 33,
    "title": "nisi vulputate nonummy maecenas tincidunt lacus at velit vivamus vel nulla eget eros elementum pellentesque quisque porta volutpat",
    "longitude": "36.93333",
    "latitude": "-4.2",
    "address": "59728 Ridgeview Lane"
}, {
    "id": "51d689a1-432f-43ca-8e34-203f71c86d84",
    "totalQuantity": 16,
    "discount": 90,
    "totalMoney": 54,
    "returnMoney": 97,
    "title": "amet nunc viverra dapibus nulla suscipit ligula in lacus curabitur at ipsum ac tellus semper",
    "longitude": "-84.1201",
    "latitude": "35.9924",
    "address": "5 Grim Way"
}, {
    "id": "f93cd9ea-10da-4cde-ac38-fe8a67fb35f0",
    "totalQuantity": 64,
    "discount": 69,
    "totalMoney": 71,
    "returnMoney": 5,
    "title": "vestibulum ac est lacinia nisi venenatis tristique fusce congue diam id ornare imperdiet sapien urna pretium nisl ut volutpat sapien",
    "longitude": "121.00222",
    "latitude": "6.05222",
    "address": "85 Anthes Plaza"
}, {
    "id": "13e303ba-1a73-489d-ae85-504b77ca3421",
    "totalQuantity": 23,
    "discount": 51,
    "totalMoney": 24,
    "returnMoney": 58,
    "title": "pharetra magna vestibulum aliquet ultrices erat tortor sollicitudin mi sit amet lobortis sapien sapien non mi integer",
    "longitude": "113.09562",
    "latitude": "30.05468",
    "address": "668 Village Green Pass"
}, {
    "id": "1f696e71-555a-4647-81d0-316786f38c03",
    "totalQuantity": 95,
    "discount": 86,
    "totalMoney": 19,
    "returnMoney": 91,
    "title": "aliquet massa id lobortis convallis tortor risus dapibus augue vel accumsan tellus nisi eu orci mauris",
    "longitude": "35.39252",
    "latitude": "32.69464",
    "address": "1179 Upham Drive"
}, {
    "id": "0b114559-040a-40a7-94a3-402f3a020255",
    "totalQuantity": 51,
    "discount": 44,
    "totalMoney": 85,
    "returnMoney": 64,
    "title": "vitae mattis nibh ligula nec sem duis aliquam convallis nunc proin at turpis a pede posuere nonummy",
    "longitude": "121.07982",
    "latitude": "28.1862",
    "address": "7 Spaight Hill"
}, {
    "id": "c987694e-cf3d-41f4-b6ee-5b23b6839fca",
    "totalQuantity": 47,
    "discount": 48,
    "totalMoney": 13,
    "returnMoney": 86,
    "title": "orci mauris lacinia sapien quis libero nullam sit amet turpis elementum ligula vehicula consequat",
    "longitude": "100.50964",
    "latitude": "13.62875",
    "address": "4 Garrison Trail"
}, {
    "id": "b87627d2-c532-4383-99f4-689efee6f7ed",
    "totalQuantity": 26,
    "discount": 8,
    "totalMoney": 18,
    "returnMoney": 64,
    "title": "viverra eget congue eget semper rutrum nulla nunc purus phasellus in felis donec semper sapien a libero",
    "longitude": "68.29027",
    "latitude": "25.43939",
    "address": "16 Sloan Terrace"
}, {
    "id": "aafcc134-b2b5-4015-bdc1-3cb62ebdc023",
    "totalQuantity": 40,
    "discount": 10,
    "totalMoney": 12,
    "returnMoney": 17,
    "title": "habitasse platea dictumst morbi vestibulum velit id pretium iaculis diam erat fermentum justo nec condimentum neque sapien placerat ante",
    "longitude": "108.79631",
    "latitude": "-7.5556",
    "address": "85991 Karstens Road"
}, {
    "id": "54bd8dae-5eec-4e56-85d9-285a7f3183f6",
    "totalQuantity": 77,
    "discount": 30,
    "totalMoney": 34,
    "returnMoney": 89,
    "title": "amet cursus id turpis integer aliquet massa id lobortis convallis tortor risus dapibus augue vel",
    "longitude": "69.22592",
    "latitude": "33.59744",
    "address": "82939 6th Center"
}, {
    "id": "02050e09-b85d-4f4e-b4c8-6ab128c5caf1",
    "totalQuantity": 75,
    "discount": 47,
    "totalMoney": 49,
    "returnMoney": 87,
    "title": "vestibulum sed magna at nunc commodo placerat praesent blandit nam nulla",
    "longitude": "111.57685",
    "latitude": "30.33052",
    "address": "0 Gulseth Avenue"
}, {
    "id": "fc6481bd-f979-4fff-883a-b551c2f1de48",
    "totalQuantity": 91,
    "discount": 49,
    "totalMoney": 51,
    "returnMoney": 32,
    "title": "vestibulum sed magna at nunc commodo placerat praesent blandit nam nulla integer pede justo lacinia",
    "longitude": "-76.33292",
    "latitude": "3.76383",
    "address": "75 Esker Way"
}, {
    "id": "7ea8b67a-a935-4704-8557-0fc3fe7dea87",
    "totalQuantity": 98,
    "discount": 41,
    "totalMoney": 80,
    "returnMoney": 71,
    "title": "phasellus sit amet erat nulla tempus vivamus in felis eu sapien cursus",
    "longitude": "-76.28333",
    "latitude": "-5.28333",
    "address": "56 Browning Trail"
}, {
    "id": "828cbeca-bdaa-45e4-8059-0503bf72fd9d",
    "totalQuantity": 85,
    "discount": 21,
    "totalMoney": 17,
    "returnMoney": 69,
    "title": "habitasse platea dictumst morbi vestibulum velit id pretium iaculis diam erat fermentum justo",
    "longitude": "13.4",
    "latitude": "57.1667",
    "address": "96453 Tomscot Way"
}, {
    "id": "14f2d02d-da5b-4762-a6e8-09b58526810f",
    "totalQuantity": 18,
    "discount": 5,
    "totalMoney": 80,
    "returnMoney": 48,
    "title": "turpis elementum ligula vehicula consequat morbi a ipsum integer a",
    "longitude": "20.94767",
    "latitude": "49.70866",
    "address": "8943 Rieder Trail"
}, {
    "id": "f952b504-d471-4f0d-ae63-250bceeedb0e",
    "totalQuantity": 60,
    "discount": 59,
    "totalMoney": 89,
    "returnMoney": 52,
    "title": "congue eget semper rutrum nulla nunc purus phasellus in felis donec semper sapien a libero nam dui proin leo",
    "longitude": "23.82475",
    "latitude": "38.2898",
    "address": "08943 Bluestem Pass"
}, {
    "id": "cdcabc59-1a86-4df5-9f45-0cee2828b94e",
    "totalQuantity": 59,
    "discount": 7,
    "totalMoney": 19,
    "returnMoney": 2,
    "title": "donec odio justo sollicitudin ut suscipit a feugiat et eros vestibulum ac est lacinia nisi",
    "longitude": "130.26667",
    "latitude": "31.71667",
    "address": "6206 School Road"
}, {
    "id": "b2c2e11d-c49a-4562-9c9e-edef35e1ac39",
    "totalQuantity": 22,
    "discount": 35,
    "totalMoney": 43,
    "returnMoney": 43,
    "title": "elit ac nulla sed vel enim sit amet nunc viverra dapibus nulla suscipit ligula in lacus curabitur",
    "longitude": "-0.4588",
    "latitude": "46.3231",
    "address": "54 Blue Bill Park Crossing"
}, {
    "id": "65e79c3e-d11d-4734-9941-4ca381101360",
    "totalQuantity": 58,
    "discount": 58,
    "totalMoney": 46,
    "returnMoney": 78,
    "title": "lobortis sapien sapien non mi integer ac neque duis bibendum morbi non",
    "longitude": "130.45",
    "latitude": "33.03333",
    "address": "1 Farmco Trail"
}, {
    "id": "e90e5041-8bb1-4dbc-9ee2-0d618a45e6f2",
    "totalQuantity": 81,
    "discount": 86,
    "totalMoney": 38,
    "returnMoney": 22,
    "title": "eget orci vehicula condimentum curabitur in libero ut massa volutpat convallis morbi odio odio elementum eu interdum",
    "longitude": "-9.35",
    "latitude": "38.7667",
    "address": "1 Mallard Alley"
}, {
    "id": "d866205a-95bc-457e-9265-751ae4068ea8",
    "totalQuantity": 34,
    "discount": 56,
    "totalMoney": 51,
    "returnMoney": 40,
    "title": "consectetuer adipiscing elit proin interdum mauris non ligula pellentesque ultrices phasellus",
    "longitude": "101.1255",
    "latitude": "14.84228",
    "address": "102 Michigan Parkway"
}, {
    "id": "ecdc76de-8825-436b-8d5e-d0ea7a4f3799",
    "totalQuantity": 50,
    "discount": 5,
    "totalMoney": 79,
    "returnMoney": 35,
    "title": "odio condimentum id luctus nec molestie sed justo pellentesque viverra pede ac diam cras pellentesque volutpat dui maecenas tristique",
    "longitude": "159.64266",
    "latitude": "55.6065",
    "address": "0732 Gina Terrace"
}, {
    "id": "e9c808fd-e92f-4872-8076-ab70608199fa",
    "totalQuantity": 76,
    "discount": 20,
    "totalMoney": 31,
    "returnMoney": 79,
    "title": "gravida sem praesent id massa id nisl venenatis lacinia aenean sit amet justo morbi ut odio cras mi pede malesuada",
    "longitude": "110.75",
    "latitude": "28.68333",
    "address": "98 Pine View Pass"
}, {
    "id": "e1580a76-14ff-47bb-98b4-3d9a20000fb1",
    "totalQuantity": 67,
    "discount": 13,
    "totalMoney": 77,
    "returnMoney": 54,
    "title": "rutrum ac lobortis vel dapibus at diam nam tristique tortor eu",
    "longitude": "107.02229",
    "latitude": "29.2162",
    "address": "147 Glacier Hill Place"
}, {
    "id": "abc5749b-2e05-423d-9dda-8e75dd721958",
    "totalQuantity": 74,
    "discount": 1,
    "totalMoney": 34,
    "returnMoney": 12,
    "title": "dapibus duis at velit eu est congue elementum in hac habitasse platea dictumst morbi vestibulum velit id pretium iaculis diam",
    "longitude": "-1.0903",
    "latitude": "49.1162",
    "address": "45960 Milwaukee Street"
}, {
    "id": "ec5d5e8e-4f14-41f0-9daa-93721cf29abd",
    "totalQuantity": 96,
    "discount": 40,
    "totalMoney": 64,
    "returnMoney": 98,
    "title": "non velit nec nisi vulputate nonummy maecenas tincidunt lacus at velit",
    "longitude": "113.97706",
    "latitude": "30.30298",
    "address": "19 Mesta Way"
}, {
    "id": "60a8d106-fa9b-4502-b1e8-f4a113bfc0b1",
    "totalQuantity": 93,
    "discount": 12,
    "totalMoney": 64,
    "returnMoney": 57,
    "title": "quisque id justo sit amet sapien dignissim vestibulum vestibulum ante ipsum primis in faucibus orci luctus et ultrices posuere cubilia",
    "longitude": "5.7167",
    "latitude": "45.1667",
    "address": "509 Magdeline Court"
}, {
    "id": "829c3fb2-a356-459f-9016-0e76e4283758",
    "totalQuantity": 90,
    "discount": 44,
    "totalMoney": 19,
    "returnMoney": 5,
    "title": "sit amet eleifend pede libero quis orci nullam molestie nibh in lectus pellentesque at nulla suspendisse potenti cras in purus",
    "longitude": "19.74389",
    "latitude": "49.80454",
    "address": "92 Corben Plaza"
}, {
    "id": "04655982-74a1-4396-8843-8c613cfc4456",
    "totalQuantity": 19,
    "discount": 77,
    "totalMoney": 75,
    "returnMoney": 52,
    "title": "diam erat fermentum justo nec condimentum neque sapien placerat ante",
    "longitude": "30.1102",
    "latitude": "49.24545",
    "address": "9670 Blaine Lane"
}, {
    "id": "fa440675-ce4e-4bc3-a5f7-0fa367267b08",
    "totalQuantity": 59,
    "discount": 11,
    "totalMoney": 86,
    "returnMoney": 16,
    "title": "eget tempus vel pede morbi porttitor lorem id ligula suspendisse",
    "longitude": "7.9923",
    "latitude": "58.145",
    "address": "8 Linden Hill"
}, {
    "id": "fc2ab7a1-ccc0-4ed2-b49d-f165184f4943",
    "totalQuantity": 77,
    "discount": 44,
    "totalMoney": 20,
    "returnMoney": 38,
    "title": "tristique fusce congue diam id ornare imperdiet sapien urna pretium nisl ut volutpat sapien",
    "longitude": "79.9015",
    "latitude": "6.8905",
    "address": "7872 Badeau Trail"
}, {
    "id": "6a2a86cd-446b-453c-92b8-2b069e753ddd",
    "totalQuantity": 85,
    "discount": 42,
    "totalMoney": 45,
    "returnMoney": 56,
    "title": "sociis natoque penatibus et magnis dis parturient montes nascetur ridiculus mus vivamus vestibulum sagittis sapien cum sociis natoque penatibus",
    "longitude": "93.28142",
    "latitude": "31.5257",
    "address": "347 New Castle Avenue"
}, {
    "id": "f1ec6f4c-9041-4a26-8691-b0ccda8e4cdd",
    "totalQuantity": 15,
    "discount": 100,
    "totalMoney": 63,
    "returnMoney": 4,
    "title": "sed accumsan felis ut at dolor quis odio consequat varius integer ac leo",
    "longitude": "119.76833",
    "latitude": "27.70833",
    "address": "7829 Chive Way"
}, {
    "id": "d693f786-1ca6-401e-8a05-8670ca4426b4",
    "totalQuantity": 49,
    "discount": 41,
    "totalMoney": 77,
    "returnMoney": 64,
    "title": "dapibus augue vel accumsan tellus nisi eu orci mauris lacinia",
    "longitude": "110.94389",
    "latitude": "27.48667",
    "address": "8415 Vidon Way"
}, {
    "id": "24407fb8-7591-41b9-8661-bb7e3e4fb6fe",
    "totalQuantity": 27,
    "discount": 61,
    "totalMoney": 76,
    "returnMoney": 40,
    "title": "augue luctus tincidunt nulla mollis molestie lorem quisque ut erat curabitur gravida nisi at nibh in hac habitasse platea",
    "longitude": "-3.67075",
    "latitude": "16.41453",
    "address": "3 Meadow Ridge Point"
}, {
    "id": "399fa730-f24a-453e-bbc0-cee6ff0dd5f0",
    "totalQuantity": 24,
    "discount": 27,
    "totalMoney": 74,
    "returnMoney": 10,
    "title": "nulla suspendisse potenti cras in purus eu magna vulputate luctus cum sociis natoque penatibus et magnis dis parturient montes nascetur",
    "longitude": "120.3295",
    "latitude": "15.8227",
    "address": "76344 Rigney Court"
}, {
    "id": "487fdfd3-eaa9-4fe0-8549-2668c75ec9fe",
    "totalQuantity": 82,
    "discount": 9,
    "totalMoney": 23,
    "returnMoney": 67,
    "title": "odio elementum eu interdum eu tincidunt in leo maecenas pulvinar lobortis est",
    "longitude": "101.5296",
    "latitude": "3.0906",
    "address": "99 Fuller Parkway"
}, {
    "id": "3f860138-5485-4828-9f91-dc3d80263b11",
    "totalQuantity": 7,
    "discount": 59,
    "totalMoney": 27,
    "returnMoney": 16,
    "title": "pede libero quis orci nullam molestie nibh in lectus pellentesque at nulla suspendisse potenti cras in purus eu magna vulputate",
    "longitude": "105.97611",
    "latitude": "28.34083",
    "address": "053 Paget Court"
}, {
    "id": "f5e96db2-7cd2-4b2a-a34f-512db78b7e9d",
    "totalQuantity": 81,
    "discount": 43,
    "totalMoney": 8,
    "returnMoney": 35,
    "title": "quam a odio in hac habitasse platea dictumst maecenas ut massa quis augue luctus tincidunt nulla mollis",
    "longitude": "84.39806",
    "latitude": "55.67167",
    "address": "7234 Cascade Avenue"
}, {
    "id": "695c407e-3508-4aca-a80f-5d17c4dae163",
    "totalQuantity": 29,
    "discount": 80,
    "totalMoney": 14,
    "returnMoney": 31,
    "title": "augue aliquam erat volutpat in congue etiam justo etiam pretium iaculis justo in hac habitasse platea dictumst etiam",
    "longitude": "108.1563",
    "latitude": "-7.2475",
    "address": "4000 8th Place"
}, {
    "id": "196f32fd-b304-43e6-9b84-40db9b7dbb70",
    "totalQuantity": 68,
    "discount": 38,
    "totalMoney": 66,
    "returnMoney": 92,
    "title": "montes nascetur ridiculus mus vivamus vestibulum sagittis sapien cum sociis natoque penatibus et magnis dis parturient montes",
    "longitude": "-75.01667",
    "latitude": "20.36667",
    "address": "5 Sunbrook Lane"
}, {
    "id": "8f997694-bb6b-4e9a-b4fa-f6c7c0c32249",
    "totalQuantity": 88,
    "discount": 59,
    "totalMoney": 95,
    "returnMoney": 27,
    "title": "est quam pharetra magna ac consequat metus sapien ut nunc vestibulum ante ipsum primis in faucibus orci luctus et",
    "longitude": "114.21788",
    "latitude": "27.75512",
    "address": "57 Jenifer Place"
}, {
    "id": "fd3f6f02-14d8-49ad-b570-3bd7baf4b445",
    "totalQuantity": 73,
    "discount": 74,
    "totalMoney": 55,
    "returnMoney": 12,
    "title": "leo pellentesque ultrices mattis odio donec vitae nisi nam ultrices libero non mattis pulvinar nulla pede ullamcorper augue",
    "longitude": "69.44806",
    "latitude": "31.34111",
    "address": "4497 Crownhardt Way"
}, {
    "id": "48404b02-0139-4512-83e8-f1f9835fa9ef",
    "totalQuantity": 61,
    "discount": 18,
    "totalMoney": 27,
    "returnMoney": 78,
    "title": "amet consectetuer adipiscing elit proin risus praesent lectus vestibulum quam sapien varius ut",
    "longitude": "-97.818",
    "latitude": "19.058",
    "address": "9 Mayer Drive"
}, {
    "id": "fd42ed8b-2120-4391-8564-5b974fe2b9ee",
    "totalQuantity": 58,
    "discount": 46,
    "totalMoney": 67,
    "returnMoney": 32,
    "title": "vitae nisl aenean lectus pellentesque eget nunc donec quis orci eget orci vehicula condimentum curabitur",
    "longitude": "21.74782",
    "latitude": "42.35518",
    "address": "1375 Sundown Drive"
}, {
    "id": "755e2b2b-8cb0-4ec6-ba05-b205b37b49d8",
    "totalQuantity": 85,
    "discount": 48,
    "totalMoney": 88,
    "returnMoney": 70,
    "title": "ipsum integer a nibh in quis justo maecenas rhoncus aliquam lacus morbi",
    "longitude": "121.9127",
    "latitude": "18.2472",
    "address": "975 Schlimgen Way"
}, {
    "id": "50f87312-959e-436d-ad79-8c6206d9b059",
    "totalQuantity": 66,
    "discount": 51,
    "totalMoney": 60,
    "returnMoney": 86,
    "title": "a pede posuere nonummy integer non velit donec diam neque vestibulum eget vulputate",
    "longitude": "110.405",
    "latitude": "-7.13972",
    "address": "91644 North Point"
}, {
    "id": "85c3723e-245c-411c-b40b-03df78612cda",
    "totalQuantity": 93,
    "discount": 45,
    "totalMoney": 31,
    "returnMoney": 81,
    "title": "vulputate vitae nisl aenean lectus pellentesque eget nunc donec quis orci eget orci vehicula condimentum curabitur in libero ut massa",
    "longitude": "-80.0244",
    "latitude": "36.0807",
    "address": "5662 Glendale Junction"
}, {
    "id": "2d96c66e-49c0-4539-9296-1666456e4572",
    "totalQuantity": 80,
    "discount": 81,
    "totalMoney": 79,
    "returnMoney": 6,
    "title": "volutpat convallis morbi odio odio elementum eu interdum eu tincidunt in leo maecenas pulvinar lobortis est phasellus sit amet erat",
    "longitude": "26.45",
    "latitude": "42.88333",
    "address": "1595 Dovetail Terrace"
}, {
    "id": "5a0f6af3-42bf-4e71-8240-bd82885e2341",
    "totalQuantity": 17,
    "discount": 10,
    "totalMoney": 20,
    "returnMoney": 53,
    "title": "morbi ut odio cras mi pede malesuada in imperdiet et commodo vulputate justo",
    "longitude": "16.78333",
    "latitude": "45.93583",
    "address": "94 Arizona Place"
}, {
    "id": "30612c06-655b-4efb-aa2c-526980940576",
    "totalQuantity": 69,
    "discount": 33,
    "totalMoney": 38,
    "returnMoney": 72,
    "title": "felis sed interdum venenatis turpis enim blandit mi in porttitor pede justo",
    "longitude": "27.46179",
    "latitude": "-17.2614",
    "address": "433 Ramsey Park"
}, {
    "id": "eb997e18-e177-4c4d-adfd-0633bc2d89f7",
    "totalQuantity": 85,
    "discount": 75,
    "totalMoney": 83,
    "returnMoney": 12,
    "title": "porta volutpat quam pede lobortis ligula sit amet eleifend pede libero quis orci nullam molestie nibh",
    "longitude": "-96.91",
    "latitude": "19.9324",
    "address": "22406 Monterey Road"
}, {
    "id": "0fc756e0-4d34-4772-a929-a80460e616ea",
    "totalQuantity": 40,
    "discount": 61,
    "totalMoney": 66,
    "returnMoney": 21,
    "title": "erat volutpat in congue etiam justo etiam pretium iaculis justo in hac habitasse platea dictumst etiam faucibus cursus",
    "longitude": "15.9237",
    "latitude": "60.065",
    "address": "69 Delaware Hill"
}, {
    "id": "53f9722c-f2a8-45bd-aba1-589d443fd559",
    "totalQuantity": 24,
    "discount": 30,
    "totalMoney": 71,
    "returnMoney": 45,
    "title": "hac habitasse platea dictumst maecenas ut massa quis augue luctus tincidunt nulla mollis molestie lorem quisque ut erat",
    "longitude": "106.43645",
    "latitude": "29.82739",
    "address": "3399 Hooker Hill"
}, {
    "id": "4e710f56-079a-47a7-9982-ff4ac99ed0f6",
    "totalQuantity": 4,
    "discount": 23,
    "totalMoney": 97,
    "returnMoney": 98,
    "title": "mauris enim leo rhoncus sed vestibulum sit amet cursus id turpis integer aliquet massa",
    "longitude": "40.01111",
    "latitude": "55.98553",
    "address": "54776 Pond Center"
}, {
    "id": "c6c5650f-3281-4d01-98ce-54010d5b7add",
    "totalQuantity": 66,
    "discount": 79,
    "totalMoney": 13,
    "returnMoney": 90,
    "title": "consectetuer adipiscing elit proin interdum mauris non ligula pellentesque ultrices phasellus id sapien in sapien iaculis congue vivamus metus arcu",
    "longitude": "121.48872",
    "latitude": "18.41781",
    "address": "8094 Logan Drive"
}, {
    "id": "ed67779e-27d8-4d64-85d7-7ba7f1b73ecf",
    "totalQuantity": 32,
    "discount": 21,
    "totalMoney": 93,
    "returnMoney": 70,
    "title": "ut nulla sed accumsan felis ut at dolor quis odio consequat varius",
    "longitude": "36.71219",
    "latitude": "35.26592",
    "address": "91 East Alley"
}, {
    "id": "d0378946-bfb7-4496-a63e-5fb0a6ccc358",
    "totalQuantity": 56,
    "discount": 43,
    "totalMoney": 40,
    "returnMoney": 94,
    "title": "nullam varius nulla facilisi cras non velit nec nisi vulputate nonummy maecenas tincidunt lacus at",
    "longitude": "-75.67151",
    "latitude": "24.6224",
    "address": "019 2nd Pass"
}, {
    "id": "35c27bd0-0e27-41c4-929f-b62cd03b8a16",
    "totalQuantity": 32,
    "discount": 1,
    "totalMoney": 6,
    "returnMoney": 33,
    "title": "metus aenean fermentum donec ut mauris eget massa tempor convallis nulla neque libero convallis",
    "longitude": "-8.47061",
    "latitude": "51.89797",
    "address": "0 Dottie Parkway"
}, {
    "id": "467f450f-7ccc-426d-bee3-c7147133b394",
    "totalQuantity": 34,
    "discount": 86,
    "totalMoney": 46,
    "returnMoney": 91,
    "title": "in hac habitasse platea dictumst maecenas ut massa quis augue luctus tincidunt nulla mollis molestie lorem quisque",
    "longitude": "124.4743",
    "latitude": "-9.9293",
    "address": "22432 Di Loreto Trail"
}, {
    "id": "548dc138-29bc-4d9d-8714-8ca4dac39afc",
    "totalQuantity": 1,
    "discount": 81,
    "totalMoney": 9,
    "returnMoney": 12,
    "title": "mauris lacinia sapien quis libero nullam sit amet turpis elementum ligula vehicula consequat morbi a ipsum",
    "longitude": "124.97556",
    "latitude": "6.43",
    "address": "49 Northwestern Drive"
}, {
    "id": "25b231a6-f4fd-47ff-98e4-faf264c4f781",
    "totalQuantity": 35,
    "discount": 64,
    "totalMoney": 12,
    "returnMoney": 4,
    "title": "nisl ut volutpat sapien arcu sed augue aliquam erat volutpat in congue etiam justo etiam pretium iaculis justo in hac",
    "longitude": "-9.292",
    "latitude": "38.772",
    "address": "55 Bartillon Circle"
}, {
    "id": "d6762be9-4427-4bf2-afbc-5a6589b344d6",
    "totalQuantity": 61,
    "discount": 83,
    "totalMoney": 99,
    "returnMoney": 43,
    "title": "amet sapien dignissim vestibulum vestibulum ante ipsum primis in faucibus orci luctus et ultrices posuere cubilia curae nulla",
    "longitude": "101.13194",
    "latitude": "36.76611",
    "address": "368 Dixon Road"
}, {
    "id": "28fc3b09-1a62-4971-bfb4-03adb8595819",
    "totalQuantity": 33,
    "discount": 65,
    "totalMoney": 96,
    "returnMoney": 28,
    "title": "pellentesque quisque porta volutpat erat quisque erat eros viverra eget congue eget semper rutrum",
    "longitude": "117.7",
    "latitude": "35.85",
    "address": "30 Claremont Circle"
}, {
    "id": "1e81b478-7170-4e8b-81c1-d0197aaf3a12",
    "totalQuantity": 63,
    "discount": 32,
    "totalMoney": 92,
    "returnMoney": 82,
    "title": "rhoncus aliquam lacus morbi quis tortor id nulla ultrices aliquet maecenas leo odio condimentum id luctus nec",
    "longitude": "-69.9",
    "latitude": "19.5",
    "address": "44 Starling Circle"
}, {
    "id": "2e96b372-ba2a-44cf-a2ce-91a195edc864",
    "totalQuantity": 95,
    "discount": 73,
    "totalMoney": 51,
    "returnMoney": 26,
    "title": "enim leo rhoncus sed vestibulum sit amet cursus id turpis integer aliquet massa id lobortis convallis tortor risus dapibus augue",
    "longitude": "-8.5333",
    "latitude": "41.95",
    "address": "5 Hagan Alley"
}, {
    "id": "adfd262e-1915-42eb-8acf-03e7cd7d5c38",
    "totalQuantity": 74,
    "discount": 38,
    "totalMoney": 33,
    "returnMoney": 9,
    "title": "hac habitasse platea dictumst maecenas ut massa quis augue luctus",
    "longitude": "105.8989",
    "latitude": "-6.3554",
    "address": "69 Towne Court"
}, {
    "id": "d9f7c49f-3ad4-43fd-bcb8-f5abf3e7f638",
    "totalQuantity": 67,
    "discount": 43,
    "totalMoney": 27,
    "returnMoney": 26,
    "title": "hac habitasse platea dictumst etiam faucibus cursus urna ut tellus",
    "longitude": "19.45619",
    "latitude": "52.18409",
    "address": "77 1st Junction"
}, {
    "id": "8ed3463b-1357-4eb2-b03e-d3b94ad49789",
    "totalQuantity": 5,
    "discount": 99,
    "totalMoney": 44,
    "returnMoney": 55,
    "title": "sit amet consectetuer adipiscing elit proin risus praesent lectus vestibulum quam sapien varius ut",
    "longitude": "16.9611",
    "latitude": "49.51163",
    "address": "9166 Northridge Trail"
}, {
    "id": "8f242bd8-661c-4eb1-b049-d3e036c549bf",
    "totalQuantity": 65,
    "discount": 64,
    "totalMoney": 51,
    "returnMoney": 66,
    "title": "pellentesque at nulla suspendisse potenti cras in purus eu magna vulputate",
    "longitude": "116.15748",
    "latitude": "40.52533",
    "address": "31386 Dottie Lane"
}, {
    "id": "2e7bb60e-3142-4bbf-bcc5-b438046bb64e",
    "totalQuantity": 74,
    "discount": 19,
    "totalMoney": 91,
    "returnMoney": 99,
    "title": "cubilia curae duis faucibus accumsan odio curabitur convallis duis consequat dui nec nisi volutpat",
    "longitude": "17.68444",
    "latitude": "43.12139",
    "address": "51 Golf View Way"
}, {
    "id": "a0039e3b-8baf-499b-84da-81208d2f340c",
    "totalQuantity": 2,
    "discount": 1,
    "totalMoney": 57,
    "returnMoney": 94,
    "title": "eu tincidunt in leo maecenas pulvinar lobortis est phasellus sit amet erat nulla tempus vivamus in",
    "longitude": "16.03037",
    "latitude": "50.78314",
    "address": "01872 Golf Course Crossing"
}, {
    "id": "8c28e445-5196-40d8-9813-46c4dea63ec6",
    "totalQuantity": 30,
    "discount": 63,
    "totalMoney": 97,
    "returnMoney": 87,
    "title": "posuere cubilia curae mauris viverra diam vitae quam suspendisse potenti",
    "longitude": "121.5691",
    "latitude": "17.8861",
    "address": "18343 Prairie Rose Junction"
}, {
    "id": "1d85cfb6-ad29-467b-ba68-453207ad412f",
    "totalQuantity": 41,
    "discount": 42,
    "totalMoney": 82,
    "returnMoney": 19,
    "title": "fusce congue diam id ornare imperdiet sapien urna pretium nisl ut volutpat sapien arcu sed augue aliquam erat",
    "longitude": "120.6568",
    "latitude": "-8.5675",
    "address": "16 Summerview Terrace"
}, {
    "id": "8174b69f-9d57-4780-94be-b4466ffa082d",
    "totalQuantity": 65,
    "discount": 83,
    "totalMoney": 69,
    "returnMoney": 22,
    "title": "nec euismod scelerisque quam turpis adipiscing lorem vitae mattis nibh ligula nec sem duis",
    "longitude": "-90.48056",
    "latitude": "14.96417",
    "address": "61029 Dahle Circle"
}]
=======
[{"id":"21abbe13-6acc-410e-9257-0f89d5ac5ba9","totalQuantity":26,"discount":20,"totalMoney":93,"returnMoney":25,"title":"cursus vestibulum proin eu mi nulla ac enim in tempor turpis nec euismod scelerisque quam turpis adipiscing lorem vitae mattis","longitude":"124.3921","latitude":"11.2135","address":"35 Summit Plaza","creatorId":"b37b043d-b699-4cf7-8398-89fd9b869a4f"},
{"id":"69dd7b60-a6de-44dd-9839-82980f306fee","totalQuantity":65,"discount":100,"totalMoney":8,"returnMoney":30,"title":"justo aliquam quis turpis eget elit sodales scelerisque mauris sit amet eros suspendisse accumsan tortor quis turpis sed","longitude":"11.7701","latitude":"57.7243","address":"69220 Hoepker Hill","creatorId":"e49cfe1f-126b-4f73-a837-4bccf7f14c06"},
{"id":"e049faad-6c2d-4dcf-b985-117c578d38c8","totalQuantity":4,"discount":58,"totalMoney":93,"returnMoney":10,"title":"pede malesuada in imperdiet et commodo vulputate justo in blandit ultrices enim lorem ipsum dolor sit amet","longitude":"4.8467","latitude":"45.7485","address":"1530 Bunker Hill Avenue","creatorId":"b37b043d-b699-4cf7-8398-89fd9b869a4f"},
{"id":"2112df90-d4fe-4802-9d9b-9a4a2a518bb1","totalQuantity":55,"discount":57,"totalMoney":86,"returnMoney":58,"title":"nulla eget eros elementum pellentesque quisque porta volutpat erat quisque","longitude":"-45.09139","latitude":"-21.09083","address":"3925 Carioca Drive","creatorId":"7b4052a9-a30a-4d65-9d0f-9a1f54be7970"},
{"id":"6aa76889-06e6-4537-98bb-c4a117c7ff33","totalQuantity":21,"discount":38,"totalMoney":62,"returnMoney":43,"title":"faucibus accumsan odio curabitur convallis duis consequat dui nec nisi volutpat eleifend donec","longitude":"14.9782","latitude":"58.0372","address":"5 Linden Lane","creatorId":"856bf7b2-6a02-4bf2-8b99-575ef81152b4"},
{"id":"efa59c65-13c4-4cb2-82e7-91e7f1d0d309","totalQuantity":45,"discount":87,"totalMoney":81,"returnMoney":50,"title":"nulla ut erat id mauris vulputate elementum nullam varius nulla facilisi cras non","longitude":"-8.7214","latitude":"40.4209","address":"00274 Cardinal Parkway","creatorId":"b32d3f99-6d91-429b-bd0d-60101d52b7c1"},
{"id":"993f06ba-df77-4e23-afee-e7677d352088","totalQuantity":35,"discount":50,"totalMoney":3,"returnMoney":27,"title":"morbi odio odio elementum eu interdum eu tincidunt in leo maecenas pulvinar lobortis est phasellus sit","longitude":"-118.1532","latitude":"33.9909","address":"8710 Ryan Junction","creatorId":"3e03f53b-24d0-47b2-9e1f-5420d1782c7f"},
{"id":"7162bcee-0b06-4aca-9a85-35cab2a7e2b7","totalQuantity":59,"discount":40,"totalMoney":23,"returnMoney":43,"title":"morbi vel lectus in quam fringilla rhoncus mauris enim leo rhoncus sed vestibulum","longitude":"-108.2967","latitude":"52.77972","address":"7 Dryden Parkway","creatorId":"91be2839-72f3-42b8-ba6a-d66a18586d37"},
{"id":"a9258954-516f-45b4-8caf-ab053e4eb138","totalQuantity":52,"discount":51,"totalMoney":4,"returnMoney":76,"title":"rutrum neque aenean auctor gravida sem praesent id massa id nisl venenatis lacinia aenean sit amet justo","longitude":"151.2313","latitude":"-33.8784","address":"70942 Jenifer Trail","creatorId":"e2e2a91b-c416-4355-b1ed-202da4abf22e"},
{"id":"ee6d78df-a8c2-43f2-9828-d6e158d43c4e","totalQuantity":49,"discount":73,"totalMoney":57,"returnMoney":53,"title":"eu magna vulputate luctus cum sociis natoque penatibus et magnis dis parturient montes nascetur ridiculus mus vivamus","longitude":"8.55276","latitude":"35.89174","address":"3011 Fremont Pass","creatorId":"856bf7b2-6a02-4bf2-8b99-575ef81152b4"},
{"id":"388ce169-0790-4081-b11e-da4b6a7da5f1","totalQuantity":31,"discount":59,"totalMoney":66,"returnMoney":60,"title":"fermentum donec ut mauris eget massa tempor convallis nulla neque libero convallis eget eleifend luctus ultricies eu nibh quisque id","longitude":"14.68333","latitude":"-13.78333","address":"3 Northwestern Hill","creatorId":"c9f60181-89cd-4922-930c-cf4fb16e22db"},
{"id":"76c7c485-5b0e-412f-8237-27bf541c6b5a","totalQuantity":4,"discount":20,"totalMoney":13,"returnMoney":60,"title":"sapien non mi integer ac neque duis bibendum morbi non quam nec dui luctus rutrum nulla tellus","longitude":"109.64244","latitude":"34.50723","address":"1 Moulton Terrace","creatorId":"91be2839-72f3-42b8-ba6a-d66a18586d37"},
{"id":"0c621b61-3290-40cb-9e49-f4744898e9ec","totalQuantity":4,"discount":72,"totalMoney":40,"returnMoney":24,"title":"magnis dis parturient montes nascetur ridiculus mus etiam vel augue vestibulum rutrum rutrum neque aenean auctor gravida sem praesent id","longitude":"-7.9063","latitude":"40.3736","address":"5544 Buena Vista Parkway","creatorId":"e49cfe1f-126b-4f73-a837-4bccf7f14c06"},
{"id":"3451f32e-232a-47b2-a92f-fa4e70ea9153","totalQuantity":71,"discount":56,"totalMoney":4,"returnMoney":13,"title":"quisque erat eros viverra eget congue eget semper rutrum nulla nunc purus phasellus in felis donec","longitude":"111.0654","latitude":"-6.6132","address":"6 2nd Circle","creatorId":"5f5b7d18-6913-4404-8071-68e9585809a6"},
{"id":"32316cc5-3f5c-4b60-aa10-dbd541fc6d8c","totalQuantity":46,"discount":67,"totalMoney":3,"returnMoney":48,"title":"mauris viverra diam vitae quam suspendisse potenti nullam porttitor lacus","longitude":"85.65364","latitude":"53.07822","address":"242 Hayes Terrace","creatorId":"963266e4-df9a-49b6-ba87-03c2d1b6f487"},
{"id":"4f803155-a23d-46ea-ba87-a35542c6976d","totalQuantity":13,"discount":100,"totalMoney":52,"returnMoney":27,"title":"sit amet eleifend pede libero quis orci nullam molestie nibh in lectus pellentesque at nulla suspendisse potenti","longitude":"114.34489","latitude":"31.09609","address":"80447 Mcbride Point","creatorId":"91be2839-72f3-42b8-ba6a-d66a18586d37"},
{"id":"c498baa8-9a88-4a7d-b7d3-de55956c2d6a","totalQuantity":90,"discount":63,"totalMoney":1,"returnMoney":46,"title":"maecenas rhoncus aliquam lacus morbi quis tortor id nulla ultrices aliquet maecenas leo odio condimentum","longitude":"139.91667","latitude":"36.43333","address":"01 Monica Plaza","creatorId":"e2e2a91b-c416-4355-b1ed-202da4abf22e"},
{"id":"41bd2034-23e5-45a0-a0c2-20d35c0aeb61","totalQuantity":96,"discount":56,"totalMoney":27,"returnMoney":22,"title":"id massa id nisl venenatis lacinia aenean sit amet justo morbi","longitude":"126.52194","latitude":"33.50972","address":"5999 Lakewood Gardens Circle","creatorId":"013853c5-edda-41cf-b436-8e976e191020"},
{"id":"7e804390-3773-4aa3-bb29-42a0a04d4167","totalQuantity":52,"discount":28,"totalMoney":1,"returnMoney":93,"title":"pharetra magna ac consequat metus sapien ut nunc vestibulum ante ipsum primis in faucibus orci luctus et","longitude":"108.5693","latitude":"-6.9924","address":"3829 Kedzie Way","creatorId":"f228222f-100d-4f38-80b8-6b5ceae1b6d2"},
{"id":"19036869-4c5a-4f44-8c61-1d42b5c5487b","totalQuantity":99,"discount":15,"totalMoney":6,"returnMoney":97,"title":"dui vel nisl duis ac nibh fusce lacus purus aliquet","longitude":"19.705","latitude":"40.94194","address":"4 Rutledge Hill","creatorId":"2c2b7aba-1ff7-4801-acd2-47af75672fe7"},
{"id":"41ef11a6-efcd-4bee-8572-80cf44898b89","totalQuantity":45,"discount":96,"totalMoney":33,"returnMoney":49,"title":"libero nam dui proin leo odio porttitor id consequat in consequat","longitude":"7.98475","latitude":"5.2004","address":"0 Blackbird Point","creatorId":"5f5b7d18-6913-4404-8071-68e9585809a6"},
{"id":"4588386d-c90b-4f83-893a-068b7d455758","totalQuantity":16,"discount":18,"totalMoney":79,"returnMoney":50,"title":"magnis dis parturient montes nascetur ridiculus mus vivamus vestibulum sagittis sapien cum sociis natoque penatibus et magnis dis","longitude":"113.96121","latitude":"22.58041","address":"41 Welch Parkway","creatorId":"5f5b7d18-6913-4404-8071-68e9585809a6"},
{"id":"b9f2b334-ca26-4a7b-8663-4a1582f73779","totalQuantity":72,"discount":97,"totalMoney":81,"returnMoney":95,"title":"cum sociis natoque penatibus et magnis dis parturient montes nascetur ridiculus mus etiam vel augue","longitude":"109.8918","latitude":"29.1343","address":"97 Bonner Crossing","creatorId":"f228222f-100d-4f38-80b8-6b5ceae1b6d2"},
{"id":"7b7754ac-1426-4b23-b1a6-b74ef8704442","totalQuantity":2,"discount":48,"totalMoney":65,"returnMoney":78,"title":"dapibus nulla suscipit ligula in lacus curabitur at ipsum ac tellus semper interdum","longitude":"87.62083","latitude":"44.12801","address":"6 Larry Way","creatorId":"75aa1fc7-5ff3-4db0-a1be-ba0eec35aaf4"},
{"id":"804f6be0-4efd-4052-9dd9-a97af69917bc","totalQuantity":52,"discount":16,"totalMoney":28,"returnMoney":66,"title":"orci pede venenatis non sodales sed tincidunt eu felis fusce posuere felis sed","longitude":"44.43591","latitude":"40.06762","address":"87535 Saint Paul Terrace","creatorId":"0ac7a297-3515-4301-bb82-5d3ea2e768a0"},
{"id":"fbd0059f-19b2-49e6-8ff1-dee34f5e8e63","totalQuantity":91,"discount":73,"totalMoney":71,"returnMoney":87,"title":"dolor sit amet consectetuer adipiscing elit proin risus praesent lectus vestibulum quam sapien varius ut blandit non","longitude":"123.34121","latitude":"12.29434","address":"73 Johnson Avenue","creatorId":"856bf7b2-6a02-4bf2-8b99-575ef81152b4"},
{"id":"950ede3b-d7c6-45e0-a63a-e259f70f3a93","totalQuantity":100,"discount":24,"totalMoney":40,"returnMoney":45,"title":"amet justo morbi ut odio cras mi pede malesuada in imperdiet et commodo vulputate justo in","longitude":"27.7969","latitude":"48.85917","address":"8 Gateway Crossing","creatorId":"5f5b7d18-6913-4404-8071-68e9585809a6"},
{"id":"36b0e46b-ef1c-46b6-b202-d0b68b6dbc8d","totalQuantity":29,"discount":83,"totalMoney":64,"returnMoney":30,"title":"sapien urna pretium nisl ut volutpat sapien arcu sed augue aliquam erat volutpat in congue etiam justo etiam","longitude":"106.81639","latitude":"29.08139","address":"9 Bellgrove Pass","creatorId":"ba09e11b-9c74-40c7-8d89-d560fd228a91"},
{"id":"06e86426-b7b5-4318-a750-f260ab04e4c5","totalQuantity":96,"discount":17,"totalMoney":11,"returnMoney":86,"title":"in lacus curabitur at ipsum ac tellus semper interdum mauris ullamcorper purus sit amet nulla quisque arcu libero rutrum ac","longitude":"-86.87804","latitude":"12.43787","address":"25063 Steensland Park","creatorId":"e2e2a91b-c416-4355-b1ed-202da4abf22e"},
{"id":"db9ee259-4a83-4ed4-83ab-a352d4a14fd9","totalQuantity":39,"discount":31,"totalMoney":69,"returnMoney":50,"title":"lectus suspendisse potenti in eleifend quam a odio in hac habitasse platea dictumst maecenas ut massa","longitude":"-73.8778","latitude":"22.54352","address":"85853 Dahle Lane","creatorId":"013853c5-edda-41cf-b436-8e976e191020"},
{"id":"4d5e9090-887c-49c2-a92f-9d8f2c4ae635","totalQuantity":79,"discount":7,"totalMoney":33,"returnMoney":27,"title":"aliquam erat volutpat in congue etiam justo etiam pretium iaculis justo in hac habitasse platea dictumst","longitude":"120.43201","latitude":"16.09376","address":"8915 Crownhardt Drive","creatorId":"b32d3f99-6d91-429b-bd0d-60101d52b7c1"},
{"id":"51236914-80ca-4cee-948a-8c7d309197b9","totalQuantity":12,"discount":13,"totalMoney":80,"returnMoney":82,"title":"gravida sem praesent id massa id nisl venenatis lacinia aenean sit","longitude":"21.32667","latitude":"55.55361","address":"9633 Ruskin Hill","creatorId":"199dffa6-5a90-4dd0-9fbf-6ade8af3071d"},
{"id":"926931e1-c31f-452b-b829-412dfc32b582","totalQuantity":64,"discount":19,"totalMoney":56,"returnMoney":57,"title":"eget tempus vel pede morbi porttitor lorem id ligula suspendisse ornare","longitude":"112.2626","latitude":"28.19408","address":"6 Eagle Crest Junction","creatorId":"0ac7a297-3515-4301-bb82-5d3ea2e768a0"},
{"id":"2da777dd-0c1f-44c8-ac22-d26c8f7809b8","totalQuantity":3,"discount":39,"totalMoney":75,"returnMoney":91,"title":"leo rhoncus sed vestibulum sit amet cursus id turpis integer aliquet massa","longitude":"125.41583","latitude":"6.9675","address":"64 Myrtle Parkway","creatorId":"e49cfe1f-126b-4f73-a837-4bccf7f14c06"},
{"id":"8a048e25-c2d7-49fd-af0b-cec973e8e468","totalQuantity":74,"discount":8,"totalMoney":38,"returnMoney":33,"title":"leo maecenas pulvinar lobortis est phasellus sit amet erat nulla tempus vivamus in","longitude":"111.55357","latitude":"31.79065","address":"19557 Laurel Way","creatorId":"963266e4-df9a-49b6-ba87-03c2d1b6f487"},
{"id":"8732e61a-5ee3-4b2f-9151-a30c638fe2c1","totalQuantity":35,"discount":71,"totalMoney":22,"returnMoney":8,"title":"dui vel nisl duis ac nibh fusce lacus purus aliquet at feugiat non pretium quis lectus suspendisse potenti in eleifend","longitude":"122.21178","latitude":"40.66431","address":"086 Meadow Ridge Place","creatorId":"e2e2a91b-c416-4355-b1ed-202da4abf22e"},
{"id":"4b761b1d-97d9-4f43-8abe-ab1bf8796a3e","totalQuantity":18,"discount":8,"totalMoney":57,"returnMoney":69,"title":"ipsum primis in faucibus orci luctus et ultrices posuere cubilia curae","longitude":"113.10551","latitude":"30.11165","address":"5822 Northridge Point","creatorId":"2c2b7aba-1ff7-4801-acd2-47af75672fe7"},
{"id":"8320e660-0753-4ad5-9ffe-fdbce2b40a8f","totalQuantity":8,"discount":55,"totalMoney":95,"returnMoney":80,"title":"integer ac neque duis bibendum morbi non quam nec dui luctus rutrum nulla","longitude":"5.3811","latitude":"43.2969","address":"5038 Rowland Street","creatorId":"b37b043d-b699-4cf7-8398-89fd9b869a4f"},
{"id":"efc9c693-ba45-4a34-b781-6ecd3db3fb65","totalQuantity":32,"discount":3,"totalMoney":31,"returnMoney":64,"title":"quis turpis sed ante vivamus tortor duis mattis egestas metus aenean","longitude":"-2.9833","latitude":"48.0667","address":"9 Susan Avenue","creatorId":"7b4052a9-a30a-4d65-9d0f-9a1f54be7970"},
{"id":"1632aa57-a8f4-4e6f-9550-d4cfeb52b1f1","totalQuantity":54,"discount":45,"totalMoney":32,"returnMoney":53,"title":"elit ac nulla sed vel enim sit amet nunc viverra dapibus nulla suscipit","longitude":"121.2112","latitude":"-8.8892","address":"70932 Ramsey Way","creatorId":"75aa1fc7-5ff3-4db0-a1be-ba0eec35aaf4"},
{"id":"c3e3f56d-9d49-422f-a4c3-9700a49890c2","totalQuantity":73,"discount":57,"totalMoney":81,"returnMoney":65,"title":"integer a nibh in quis justo maecenas rhoncus aliquam lacus morbi quis tortor id nulla ultrices aliquet","longitude":"20.13558","latitude":"45.20359","address":"70 Bunting Alley","creatorId":"e2e2a91b-c416-4355-b1ed-202da4abf22e"},
{"id":"6a11c769-2077-4b4f-8d4d-e8e7b074efdb","totalQuantity":43,"discount":3,"totalMoney":25,"returnMoney":87,"title":"ac leo pellentesque ultrices mattis odio donec vitae nisi nam","longitude":"116.6242","latitude":"-8.5693","address":"065 Pawling Alley","creatorId":"b37b043d-b699-4cf7-8398-89fd9b869a4f"},
{"id":"43c3641f-5eb9-470a-8865-4333a5433db6","totalQuantity":75,"discount":34,"totalMoney":8,"returnMoney":25,"title":"nisi at nibh in hac habitasse platea dictumst aliquam augue quam sollicitudin","longitude":"-70.02367","latitude":"-38.75029","address":"51 Straubel Road","creatorId":"b32d3f99-6d91-429b-bd0d-60101d52b7c1"},
{"id":"4d72711e-49e0-4776-ba56-721bfca10fa0","totalQuantity":55,"discount":6,"totalMoney":33,"returnMoney":48,"title":"elementum pellentesque quisque porta volutpat erat quisque erat eros viverra eget congue eget semper rutrum nulla","longitude":"116.22426","latitude":"29.74296","address":"44 Cottonwood Crossing","creatorId":"0ac7a297-3515-4301-bb82-5d3ea2e768a0"},
{"id":"ef6b4fd9-1ec5-4ec2-9156-13ce4c42e1f9","totalQuantity":54,"discount":18,"totalMoney":22,"returnMoney":99,"title":"fusce congue diam id ornare imperdiet sapien urna pretium nisl ut volutpat sapien arcu sed augue aliquam erat","longitude":"88.89169","latitude":"25.77769","address":"46 Granby Way","creatorId":"c9f60181-89cd-4922-930c-cf4fb16e22db"},
{"id":"d5387ea4-08ef-4a7c-9eaf-93796b1712a5","totalQuantity":27,"discount":48,"totalMoney":57,"returnMoney":52,"title":"arcu libero rutrum ac lobortis vel dapibus at diam nam","longitude":"95.65691","latitude":"32.06672","address":"022 Holy Cross Street","creatorId":"8d6bd71f-22ec-4b6e-8721-d72b80164dae"},
{"id":"8f2d8727-fb7a-4c3b-8930-e82fbfa33292","totalQuantity":37,"discount":85,"totalMoney":7,"returnMoney":29,"title":"consequat morbi a ipsum integer a nibh in quis justo maecenas rhoncus aliquam lacus morbi quis tortor","longitude":"-84.5221","latitude":"39.2663","address":"56859 Manitowish Center","creatorId":"e2e2a91b-c416-4355-b1ed-202da4abf22e"},
{"id":"1ccaff97-71a8-47ac-a06b-75e9ff7ec3a3","totalQuantity":95,"discount":69,"totalMoney":46,"returnMoney":60,"title":"nulla suspendisse potenti cras in purus eu magna vulputate luctus cum","longitude":"113.63424","latitude":"33.9075","address":"5820 School Point","creatorId":"2c2b7aba-1ff7-4801-acd2-47af75672fe7"},
{"id":"e301566b-908f-4ff5-bb21-97e2afca9e23","totalQuantity":3,"discount":89,"totalMoney":10,"returnMoney":93,"title":"urna pretium nisl ut volutpat sapien arcu sed augue aliquam erat volutpat","longitude":"13.0197","latitude":"55.4712","address":"87198 Main Plaza","creatorId":"199dffa6-5a90-4dd0-9fbf-6ade8af3071d"},
{"id":"db53184d-2004-4990-be31-0371c9021660","totalQuantity":2,"discount":40,"totalMoney":13,"returnMoney":40,"title":"in congue etiam justo etiam pretium iaculis justo in hac","longitude":"111.0507","latitude":"-6.5507","address":"6688 Eastwood Lane","creatorId":"c9f60181-89cd-4922-930c-cf4fb16e22db"},
{"id":"08673ec8-27cd-4e5f-a66b-75220b6b9f38","totalQuantity":72,"discount":13,"totalMoney":54,"returnMoney":2,"title":"ipsum dolor sit amet consectetuer adipiscing elit proin risus praesent lectus vestibulum quam sapien varius ut","longitude":"22.48319","latitude":"40.47888","address":"27 Garrison Terrace","creatorId":"f228222f-100d-4f38-80b8-6b5ceae1b6d2"},
{"id":"81518dfb-1f9e-4346-ab8f-ce186769d424","totalQuantity":66,"discount":59,"totalMoney":38,"returnMoney":35,"title":"sapien sapien non mi integer ac neque duis bibendum morbi non quam nec","longitude":"-70.44664","latitude":"19.63552","address":"6 Pierstorff Lane","creatorId":"c9f60181-89cd-4922-930c-cf4fb16e22db"},
{"id":"f71c4ca1-5896-4573-8eeb-dcc8e9ed152b","totalQuantity":48,"discount":92,"totalMoney":86,"returnMoney":49,"title":"ipsum aliquam non mauris morbi non lectus aliquam sit amet diam","longitude":"30.44979","latitude":"-27.0177","address":"0832 Laurel Alley","creatorId":"c9f60181-89cd-4922-930c-cf4fb16e22db"},
{"id":"19cd2c91-b56c-4238-a43a-8e46590ed528","totalQuantity":38,"discount":3,"totalMoney":18,"returnMoney":92,"title":"interdum mauris non ligula pellentesque ultrices phasellus id sapien in sapien iaculis congue vivamus metus arcu adipiscing molestie hendrerit","longitude":"19.0833","latitude":"47.5","address":"921 Clove Junction","creatorId":"013853c5-edda-41cf-b436-8e976e191020"},
{"id":"1c9d67be-575c-40d1-b3f8-5d621e46a865","totalQuantity":84,"discount":78,"totalMoney":20,"returnMoney":21,"title":"etiam vel augue vestibulum rutrum rutrum neque aenean auctor gravida sem praesent id massa","longitude":"-9.35","latitude":"39.3667","address":"29296 Laurel Circle","creatorId":"b37b043d-b699-4cf7-8398-89fd9b869a4f"},
{"id":"8e5e0d7a-49cb-4ed5-8286-b62a2b49d2fd","totalQuantity":39,"discount":84,"totalMoney":11,"returnMoney":82,"title":"rhoncus mauris enim leo rhoncus sed vestibulum sit amet cursus id turpis integer","longitude":"-75.79052","latitude":"8.88479","address":"802 Hauk Way","creatorId":"e49cfe1f-126b-4f73-a837-4bccf7f14c06"},
{"id":"0d5ab8a4-d16c-4585-abbb-88ba0fc76247","totalQuantity":84,"discount":26,"totalMoney":63,"returnMoney":13,"title":"mattis odio donec vitae nisi nam ultrices libero non mattis","longitude":"13.27628","latitude":"49.72988","address":"44863 Continental Hill","creatorId":"8d6bd71f-22ec-4b6e-8721-d72b80164dae"},
{"id":"cf9d3fb1-52e4-4d79-b238-327195b51d8f","totalQuantity":32,"discount":34,"totalMoney":94,"returnMoney":65,"title":"ultrices erat tortor sollicitudin mi sit amet lobortis sapien sapien non mi integer","longitude":"120.1821","latitude":"-9.8323","address":"7123 Mariners Cove Center","creatorId":"856bf7b2-6a02-4bf2-8b99-575ef81152b4"},
{"id":"1a9c6ef1-7c3e-444e-9651-c36bc56ce17b","totalQuantity":38,"discount":17,"totalMoney":51,"returnMoney":83,"title":"gravida sem praesent id massa id nisl venenatis lacinia aenean sit","longitude":"110.58568","latitude":"29.60898","address":"44 Packers Court","creatorId":"f228222f-100d-4f38-80b8-6b5ceae1b6d2"},
{"id":"1aebf1e7-c5da-43a5-9eec-fefe584c2dd1","totalQuantity":18,"discount":86,"totalMoney":87,"returnMoney":79,"title":"ultrices aliquet maecenas leo odio condimentum id luctus nec molestie sed justo pellentesque viverra pede ac diam cras","longitude":"24.30805","latitude":"40.9269","address":"0 Muir Trail","creatorId":"75aa1fc7-5ff3-4db0-a1be-ba0eec35aaf4"},
{"id":"8d50c7fb-b2e9-42e2-adc5-15d502c8436a","totalQuantity":11,"discount":21,"totalMoney":7,"returnMoney":95,"title":"nullam porttitor lacus at turpis donec posuere metus vitae ipsum aliquam non mauris morbi non lectus aliquam sit amet diam","longitude":"114.34322","latitude":"23.65126","address":"3 Shoshone Junction","creatorId":"e2e2a91b-c416-4355-b1ed-202da4abf22e"},
{"id":"faf68285-e6e3-444d-ade0-91e6e9f67e55","totalQuantity":15,"discount":77,"totalMoney":40,"returnMoney":25,"title":"in faucibus orci luctus et ultrices posuere cubilia curae donec pharetra","longitude":"2.4793","latitude":"48.7695","address":"42 Anderson Point","creatorId":"0ac7a297-3515-4301-bb82-5d3ea2e768a0"},
{"id":"2dfdda42-ee6e-418b-bfe4-0ad1e9f4e348","totalQuantity":71,"discount":2,"totalMoney":82,"returnMoney":6,"title":"nisl duis ac nibh fusce lacus purus aliquet at feugiat non pretium quis lectus suspendisse","longitude":"27.80696","latitude":"-18.93149","address":"3 Del Sol Terrace","creatorId":"ba09e11b-9c74-40c7-8d89-d560fd228a91"},
{"id":"5113cbbf-5c25-4b67-8636-970767b7c006","totalQuantity":48,"discount":36,"totalMoney":74,"returnMoney":15,"title":"nibh quisque id justo sit amet sapien dignissim vestibulum vestibulum ante ipsum","longitude":"22.64171","latitude":"49.89983","address":"3576 Clemons Alley","creatorId":"8d6bd71f-22ec-4b6e-8721-d72b80164dae"},
{"id":"95649fc9-83ac-4978-b06d-8cf0b47b1a42","totalQuantity":13,"discount":17,"totalMoney":22,"returnMoney":23,"title":"orci luctus et ultrices posuere cubilia curae duis faucibus accumsan odio curabitur","longitude":"101.6869","latitude":"3.139","address":"20390 Utah Hill","creatorId":"856bf7b2-6a02-4bf2-8b99-575ef81152b4"},
{"id":"be047e4c-b16e-487c-aead-80d38b29fcd1","totalQuantity":29,"discount":78,"totalMoney":60,"returnMoney":45,"title":"fusce posuere felis sed lacus morbi sem mauris laoreet ut rhoncus aliquet pulvinar sed nisl nunc rhoncus dui","longitude":"100.54508","latitude":"7.20411","address":"7 Ilene Place","creatorId":"5f5b7d18-6913-4404-8071-68e9585809a6"},
{"id":"14748d76-3439-4bc4-9ded-d64d69bf4664","totalQuantity":36,"discount":39,"totalMoney":10,"returnMoney":35,"title":"odio cras mi pede malesuada in imperdiet et commodo vulputate justo in","longitude":"68.12824","latitude":"37.52027","address":"2005 Texas Plaza","creatorId":"e49cfe1f-126b-4f73-a837-4bccf7f14c06"},
{"id":"d66eff23-c7a0-40b3-b15e-a8f142c734dd","totalQuantity":3,"discount":82,"totalMoney":57,"returnMoney":64,"title":"ac diam cras pellentesque volutpat dui maecenas tristique est et","longitude":"-42.83667","latitude":"-5.09417","address":"63 Johnson Place","creatorId":"856bf7b2-6a02-4bf2-8b99-575ef81152b4"},
{"id":"70ce7ef7-bd18-4792-a03e-fd392e73c7d0","totalQuantity":64,"discount":31,"totalMoney":80,"returnMoney":42,"title":"quisque ut erat curabitur gravida nisi at nibh in hac","longitude":"117.94638","latitude":"29.92885","address":"85 Tony Trail","creatorId":"f228222f-100d-4f38-80b8-6b5ceae1b6d2"},
{"id":"9cf7dfcc-3b6b-4bcf-8e20-0df5b1cf61d2","totalQuantity":51,"discount":20,"totalMoney":30,"returnMoney":50,"title":"morbi vestibulum velit id pretium iaculis diam erat fermentum justo nec condimentum neque sapien placerat","longitude":"21.7603","latitude":"44.52223","address":"42 Mallory Terrace","creatorId":"8d6bd71f-22ec-4b6e-8721-d72b80164dae"},
{"id":"5c39202b-1032-43eb-8104-9a104044afdf","totalQuantity":40,"discount":67,"totalMoney":95,"returnMoney":35,"title":"dis parturient montes nascetur ridiculus mus etiam vel augue vestibulum rutrum rutrum neque aenean auctor gravida sem praesent id massa","longitude":"113.5076","latitude":"-8.2987","address":"8148 Stephen Parkway","creatorId":"0ac7a297-3515-4301-bb82-5d3ea2e768a0"},
{"id":"4110f2b4-1ebf-4f14-ab6e-434ac540a646","totalQuantity":25,"discount":19,"totalMoney":86,"returnMoney":22,"title":"mattis nibh ligula nec sem duis aliquam convallis nunc proin at turpis a pede posuere nonummy integer non velit donec","longitude":"-3.3667","latitude":"47.75","address":"17 Westridge Drive","creatorId":"963266e4-df9a-49b6-ba87-03c2d1b6f487"},
{"id":"0f8bd515-2821-404b-8357-51176349a56b","totalQuantity":11,"discount":35,"totalMoney":18,"returnMoney":81,"title":"ac neque duis bibendum morbi non quam nec dui luctus rutrum nulla","longitude":"115.2792","latitude":"-8.4366","address":"632 American Center","creatorId":"e49cfe1f-126b-4f73-a837-4bccf7f14c06"},
{"id":"f30e04e5-10ba-41a6-9e0b-fffe2d157c69","totalQuantity":1,"discount":10,"totalMoney":85,"returnMoney":90,"title":"nulla eget eros elementum pellentesque quisque porta volutpat erat quisque erat eros viverra","longitude":"12.9401","latitude":"57.721","address":"94 Drewry Crossing","creatorId":"2c2b7aba-1ff7-4801-acd2-47af75672fe7"},
{"id":"64396835-135d-4482-96ab-872b9513d9fa","totalQuantity":4,"discount":3,"totalMoney":59,"returnMoney":31,"title":"vitae nisi nam ultrices libero non mattis pulvinar nulla pede ullamcorper augue a suscipit nulla elit ac nulla","longitude":"135.43333","latitude":"34.48333","address":"81423 Glendale Way","creatorId":"b32d3f99-6d91-429b-bd0d-60101d52b7c1"},
{"id":"074bb7af-837f-4fef-9c62-8aaba11e7bd9","totalQuantity":77,"discount":79,"totalMoney":99,"returnMoney":34,"title":"ipsum primis in faucibus orci luctus et ultrices posuere cubilia","longitude":"114.61138","latitude":"25.2533","address":"9681 Scoville Avenue","creatorId":"199dffa6-5a90-4dd0-9fbf-6ade8af3071d"},
{"id":"c83f9e50-b263-4fe2-908e-2cfe0f7c11a0","totalQuantity":57,"discount":59,"totalMoney":12,"returnMoney":25,"title":"in sapien iaculis congue vivamus metus arcu adipiscing molestie hendrerit at vulputate vitae nisl aenean lectus pellentesque","longitude":"120.09834","latitude":"40.19084","address":"1075 Macpherson Terrace","creatorId":"8d6bd71f-22ec-4b6e-8721-d72b80164dae"},
{"id":"cf73c7e6-e01b-4f9f-b003-b3a195c9f2f5","totalQuantity":37,"discount":69,"totalMoney":15,"returnMoney":33,"title":"elementum eu interdum eu tincidunt in leo maecenas pulvinar lobortis est phasellus sit amet erat nulla tempus","longitude":"34.34691","latitude":"61.78491","address":"222 Shoshone Park","creatorId":"82b705b7-2c27-4a37-8994-c6ad9e52be45"},
{"id":"5cf8ffb6-97d2-4fe2-88aa-9d0e1f0f488c","totalQuantity":48,"discount":12,"totalMoney":56,"returnMoney":73,"title":"mauris ullamcorper purus sit amet nulla quisque arcu libero rutrum ac lobortis vel dapibus at diam nam tristique tortor eu","longitude":"116.67586","latitude":"26.5769","address":"80752 Service Place","creatorId":"7b4052a9-a30a-4d65-9d0f-9a1f54be7970"},
{"id":"101c2208-3992-4cfc-8780-0644a2cfa3a9","totalQuantity":98,"discount":80,"totalMoney":41,"returnMoney":55,"title":"accumsan tortor quis turpis sed ante vivamus tortor duis mattis egestas","longitude":"120.75595","latitude":"14.02074","address":"360 Tennessee Way","creatorId":"e49cfe1f-126b-4f73-a837-4bccf7f14c06"},
{"id":"f6b4b5a0-87e8-4385-ac38-f4a26a4f1f6f","totalQuantity":69,"discount":59,"totalMoney":23,"returnMoney":78,"title":"feugiat non pretium quis lectus suspendisse potenti in eleifend quam a odio in","longitude":"115.93354","latitude":"24.22841","address":"56 Crescent Oaks Center","creatorId":"e2e2a91b-c416-4355-b1ed-202da4abf22e"},
{"id":"ed7e89e6-84a7-45bd-b01c-76ba042f9193","totalQuantity":83,"discount":93,"totalMoney":92,"returnMoney":73,"title":"hac habitasse platea dictumst aliquam augue quam sollicitudin vitae consectetuer eget","longitude":"18.72311","latitude":"51.80384","address":"7 Parkside Way","creatorId":"82b705b7-2c27-4a37-8994-c6ad9e52be45"},
{"id":"9f2e0e5f-c782-4b0b-a823-49512ffdfb03","totalQuantity":82,"discount":1,"totalMoney":48,"returnMoney":97,"title":"hac habitasse platea dictumst morbi vestibulum velit id pretium iaculis diam erat fermentum justo nec","longitude":"-95.447","latitude":"30.0167","address":"730 Blue Bill Park Drive","creatorId":"e2e2a91b-c416-4355-b1ed-202da4abf22e"},
{"id":"130078da-8015-45bb-9cd8-c99cc3bf97e4","totalQuantity":5,"discount":26,"totalMoney":85,"returnMoney":59,"title":"consequat morbi a ipsum integer a nibh in quis justo maecenas rhoncus","longitude":"-81.6443","latitude":"41.1002","address":"00518 Buhler Crossing","creatorId":"b37b043d-b699-4cf7-8398-89fd9b869a4f"},
{"id":"0edf6782-2f5e-432d-8d32-a4ea7ddb828d","totalQuantity":30,"discount":100,"totalMoney":91,"returnMoney":8,"title":"non sodales sed tincidunt eu felis fusce posuere felis sed lacus morbi","longitude":"30.99507","latitude":"59.88101","address":"05612 Bunker Hill Crossing","creatorId":"0ac7a297-3515-4301-bb82-5d3ea2e768a0"},
{"id":"24544ed1-66dc-4120-985b-2667798d6394","totalQuantity":43,"discount":29,"totalMoney":22,"returnMoney":56,"title":"tincidunt nulla mollis molestie lorem quisque ut erat curabitur gravida nisi at nibh in hac habitasse","longitude":"23.61667","latitude":"62.58333","address":"2 Stuart Crossing","creatorId":"2c2b7aba-1ff7-4801-acd2-47af75672fe7"},