[{"id":"21abbe13-6acc-410e-9257-0f89d5ac5ba9","totalQuantity":26,"discount":20,"totalMoney":93,"returnMoney":25,"title":"cursus vestibulum proin eu mi nulla ac enim in tempor turpis nec euismod scelerisque quam turpis adipiscing lorem vitae mattis","longitude":"124.3921","latitude":"11.2135","address":"35 Summit Plaza","creatorId":"b37b043d-b699-4cf7-8398-89fd9b869a4f"},
{"id":"69dd7b60-a6de-44dd-9839-82980f306fee","totalQuantity":65,"discount":100,"totalMoney":8,"returnMoney":30,"title":"justo aliquam quis turpis eget elit sodales scelerisque mauris sit amet eros suspendisse accumsan tortor quis turpis sed","longitude":"11.7701","latitude":"57.7243","address":"69220 Hoepker Hill","creatorId":"e49cfe1f-126b-4f73-a837-4bccf7f14c06"},
{"id":"e049faad-6c2d-4dcf-b985-117c578d38c8","totalQuantity":4,"discount":58,"totalMoney":93,"returnMoney":10,"title":"pede malesuada in imperdiet et commodo vulputate justo in blandit ultrices enim lorem ipsum dolor sit amet","longitude":"4.8467","latitude":"45.7485","address":"1530 Bunker Hill Avenue","creatorId":"b37b043d-b699-4cf7-8398-89fd9b869a4f"},
{"id":"2112df90-d4fe-4802-9d9b-9a4a2a518bb1","totalQuantity":55,"discount":57,"totalMoney":86,"returnMoney":58,"title":"nulla eget eros elementum pellentesque quisque porta volutpat erat quisque","longitude":"-45.09139","latitude":"-21.09083","address":"3925 Carioca Drive","creatorId":"7b4052a9-a30a-4d65-9d0f-9a1f54be7970"},
{"id":"6aa76889-06e6-4537-98bb-c4a117c7ff33","totalQuantity":21,"discount":38,"totalMoney":62,"returnMoney":43,"title":"faucibus accumsan odio curabitur convallis duis consequat dui nec nisi volutpat eleifend donec","longitude":"14.9782","latitude":"58.0372","address":"5 Linden Lane","creatorId":"856bf7b2-6a02-4bf2-8b99-575ef81152b4"},
{"id":"efa59c65-13c4-4cb2-82e7-91e7f1d0d309","totalQuantity":45,"discount":87,"totalMoney":81,"returnMoney":50,"title":"nulla ut erat id mauris vulputate elementum nullam varius nulla facilisi cras non","longitude":"-8.7214","latitude":"40.4209","address":"00274 Cardinal Parkway","creatorId":"b32d3f99-6d91-429b-bd0d-60101d52b7c1"},
{"id":"993f06ba-df77-4e23-afee-e7677d352088","totalQuantity":35,"discount":50,"totalMoney":3,"returnMoney":27,"title":"morbi odio odio elementum eu interdum eu tincidunt in leo maecenas pulvinar lobortis est phasellus sit","longitude":"-118.1532","latitude":"33.9909","address":"8710 Ryan Junction","creatorId":"3e03f53b-24d0-47b2-9e1f-5420d1782c7f"},
{"id":"7162bcee-0b06-4aca-9a85-35cab2a7e2b7","totalQuantity":59,"discount":40,"totalMoney":23,"returnMoney":43,"title":"morbi vel lectus in quam fringilla rhoncus mauris enim leo rhoncus sed vestibulum","longitude":"-108.2967","latitude":"52.77972","address":"7 Dryden Parkway","creatorId":"91be2839-72f3-42b8-ba6a-d66a18586d37"},
{"id":"a9258954-516f-45b4-8caf-ab053e4eb138","totalQuantity":52,"discount":51,"totalMoney":4,"returnMoney":76,"title":"rutrum neque aenean auctor gravida sem praesent id massa id nisl venenatis lacinia aenean sit amet justo","longitude":"151.2313","latitude":"-33.8784","address":"70942 Jenifer Trail","creatorId":"e2e2a91b-c416-4355-b1ed-202da4abf22e"},
{"id":"ee6d78df-a8c2-43f2-9828-d6e158d43c4e","totalQuantity":49,"discount":73,"totalMoney":57,"returnMoney":53,"title":"eu magna vulputate luctus cum sociis natoque penatibus et magnis dis parturient montes nascetur ridiculus mus vivamus","longitude":"8.55276","latitude":"35.89174","address":"3011 Fremont Pass","creatorId":"856bf7b2-6a02-4bf2-8b99-575ef81152b4"},
{"id":"388ce169-0790-4081-b11e-da4b6a7da5f1","totalQuantity":31,"discount":59,"totalMoney":66,"returnMoney":60,"title":"fermentum donec ut mauris eget massa tempor convallis nulla neque libero convallis eget eleifend luctus ultricies eu nibh quisque id","longitude":"14.68333","latitude":"-13.78333","address":"3 Northwestern Hill","creatorId":"c9f60181-89cd-4922-930c-cf4fb16e22db"},
{"id":"76c7c485-5b0e-412f-8237-27bf541c6b5a","totalQuantity":4,"discount":20,"totalMoney":13,"returnMoney":60,"title":"sapien non mi integer ac neque duis bibendum morbi non quam nec dui luctus rutrum nulla tellus","longitude":"109.64244","latitude":"34.50723","address":"1 Moulton Terrace","creatorId":"91be2839-72f3-42b8-ba6a-d66a18586d37"},
{"id":"0c621b61-3290-40cb-9e49-f4744898e9ec","totalQuantity":4,"discount":72,"totalMoney":40,"returnMoney":24,"title":"magnis dis parturient montes nascetur ridiculus mus etiam vel augue vestibulum rutrum rutrum neque aenean auctor gravida sem praesent id","longitude":"-7.9063","latitude":"40.3736","address":"5544 Buena Vista Parkway","creatorId":"e49cfe1f-126b-4f73-a837-4bccf7f14c06"},
{"id":"3451f32e-232a-47b2-a92f-fa4e70ea9153","totalQuantity":71,"discount":56,"totalMoney":4,"returnMoney":13,"title":"quisque erat eros viverra eget congue eget semper rutrum nulla nunc purus phasellus in felis donec","longitude":"111.0654","latitude":"-6.6132","address":"6 2nd Circle","creatorId":"5f5b7d18-6913-4404-8071-68e9585809a6"},
{"id":"32316cc5-3f5c-4b60-aa10-dbd541fc6d8c","totalQuantity":46,"discount":67,"totalMoney":3,"returnMoney":48,"title":"mauris viverra diam vitae quam suspendisse potenti nullam porttitor lacus","longitude":"85.65364","latitude":"53.07822","address":"242 Hayes Terrace","creatorId":"963266e4-df9a-49b6-ba87-03c2d1b6f487"},
{"id":"4f803155-a23d-46ea-ba87-a35542c6976d","totalQuantity":13,"discount":100,"totalMoney":52,"returnMoney":27,"title":"sit amet eleifend pede libero quis orci nullam molestie nibh in lectus pellentesque at nulla suspendisse potenti","longitude":"114.34489","latitude":"31.09609","address":"80447 Mcbride Point","creatorId":"91be2839-72f3-42b8-ba6a-d66a18586d37"},
{"id":"c498baa8-9a88-4a7d-b7d3-de55956c2d6a","totalQuantity":90,"discount":63,"totalMoney":1,"returnMoney":46,"title":"maecenas rhoncus aliquam lacus morbi quis tortor id nulla ultrices aliquet maecenas leo odio condimentum","longitude":"139.91667","latitude":"36.43333","address":"01 Monica Plaza","creatorId":"e2e2a91b-c416-4355-b1ed-202da4abf22e"},
{"id":"41bd2034-23e5-45a0-a0c2-20d35c0aeb61","totalQuantity":96,"discount":56,"totalMoney":27,"returnMoney":22,"title":"id massa id nisl venenatis lacinia aenean sit amet justo morbi","longitude":"126.52194","latitude":"33.50972","address":"5999 Lakewood Gardens Circle","creatorId":"013853c5-edda-41cf-b436-8e976e191020"},
{"id":"7e804390-3773-4aa3-bb29-42a0a04d4167","totalQuantity":52,"discount":28,"totalMoney":1,"returnMoney":93,"title":"pharetra magna ac consequat metus sapien ut nunc vestibulum ante ipsum primis in faucibus orci luctus et","longitude":"108.5693","latitude":"-6.9924","address":"3829 Kedzie Way","creatorId":"f228222f-100d-4f38-80b8-6b5ceae1b6d2"},
{"id":"19036869-4c5a-4f44-8c61-1d42b5c5487b","totalQuantity":99,"discount":15,"totalMoney":6,"returnMoney":97,"title":"dui vel nisl duis ac nibh fusce lacus purus aliquet","longitude":"19.705","latitude":"40.94194","address":"4 Rutledge Hill","creatorId":"2c2b7aba-1ff7-4801-acd2-47af75672fe7"},
{"id":"41ef11a6-efcd-4bee-8572-80cf44898b89","totalQuantity":45,"discount":96,"totalMoney":33,"returnMoney":49,"title":"libero nam dui proin leo odio porttitor id consequat in consequat","longitude":"7.98475","latitude":"5.2004","address":"0 Blackbird Point","creatorId":"5f5b7d18-6913-4404-8071-68e9585809a6"},
{"id":"4588386d-c90b-4f83-893a-068b7d455758","totalQuantity":16,"discount":18,"totalMoney":79,"returnMoney":50,"title":"magnis dis parturient montes nascetur ridiculus mus vivamus vestibulum sagittis sapien cum sociis natoque penatibus et magnis dis","longitude":"113.96121","latitude":"22.58041","address":"41 Welch Parkway","creatorId":"5f5b7d18-6913-4404-8071-68e9585809a6"},
{"id":"b9f2b334-ca26-4a7b-8663-4a1582f73779","totalQuantity":72,"discount":97,"totalMoney":81,"returnMoney":95,"title":"cum sociis natoque penatibus et magnis dis parturient montes nascetur ridiculus mus etiam vel augue","longitude":"109.8918","latitude":"29.1343","address":"97 Bonner Crossing","creatorId":"f228222f-100d-4f38-80b8-6b5ceae1b6d2"},
{"id":"7b7754ac-1426-4b23-b1a6-b74ef8704442","totalQuantity":2,"discount":48,"totalMoney":65,"returnMoney":78,"title":"dapibus nulla suscipit ligula in lacus curabitur at ipsum ac tellus semper interdum","longitude":"87.62083","latitude":"44.12801","address":"6 Larry Way","creatorId":"75aa1fc7-5ff3-4db0-a1be-ba0eec35aaf4"},
{"id":"804f6be0-4efd-4052-9dd9-a97af69917bc","totalQuantity":52,"discount":16,"totalMoney":28,"returnMoney":66,"title":"orci pede venenatis non sodales sed tincidunt eu felis fusce posuere felis sed","longitude":"44.43591","latitude":"40.06762","address":"87535 Saint Paul Terrace","creatorId":"0ac7a297-3515-4301-bb82-5d3ea2e768a0"},
{"id":"fbd0059f-19b2-49e6-8ff1-dee34f5e8e63","totalQuantity":91,"discount":73,"totalMoney":71,"returnMoney":87,"title":"dolor sit amet consectetuer adipiscing elit proin risus praesent lectus vestibulum quam sapien varius ut blandit non","longitude":"123.34121","latitude":"12.29434","address":"73 Johnson Avenue","creatorId":"856bf7b2-6a02-4bf2-8b99-575ef81152b4"},
{"id":"950ede3b-d7c6-45e0-a63a-e259f70f3a93","totalQuantity":100,"discount":24,"totalMoney":40,"returnMoney":45,"title":"amet justo morbi ut odio cras mi pede malesuada in imperdiet et commodo vulputate justo in","longitude":"27.7969","latitude":"48.85917","address":"8 Gateway Crossing","creatorId":"5f5b7d18-6913-4404-8071-68e9585809a6"},
{"id":"36b0e46b-ef1c-46b6-b202-d0b68b6dbc8d","totalQuantity":29,"discount":83,"totalMoney":64,"returnMoney":30,"title":"sapien urna pretium nisl ut volutpat sapien arcu sed augue aliquam erat volutpat in congue etiam justo etiam","longitude":"106.81639","latitude":"29.08139","address":"9 Bellgrove Pass","creatorId":"ba09e11b-9c74-40c7-8d89-d560fd228a91"},
{"id":"06e86426-b7b5-4318-a750-f260ab04e4c5","totalQuantity":96,"discount":17,"totalMoney":11,"returnMoney":86,"title":"in lacus curabitur at ipsum ac tellus semper interdum mauris ullamcorper purus sit amet nulla quisque arcu libero rutrum ac","longitude":"-86.87804","latitude":"12.43787","address":"25063 Steensland Park","creatorId":"e2e2a91b-c416-4355-b1ed-202da4abf22e"},
{"id":"db9ee259-4a83-4ed4-83ab-a352d4a14fd9","totalQuantity":39,"discount":31,"totalMoney":69,"returnMoney":50,"title":"lectus suspendisse potenti in eleifend quam a odio in hac habitasse platea dictumst maecenas ut massa","longitude":"-73.8778","latitude":"22.54352","address":"85853 Dahle Lane","creatorId":"013853c5-edda-41cf-b436-8e976e191020"},
{"id":"4d5e9090-887c-49c2-a92f-9d8f2c4ae635","totalQuantity":79,"discount":7,"totalMoney":33,"returnMoney":27,"title":"aliquam erat volutpat in congue etiam justo etiam pretium iaculis justo in hac habitasse platea dictumst","longitude":"120.43201","latitude":"16.09376","address":"8915 Crownhardt Drive","creatorId":"b32d3f99-6d91-429b-bd0d-60101d52b7c1"},
{"id":"51236914-80ca-4cee-948a-8c7d309197b9","totalQuantity":12,"discount":13,"totalMoney":80,"returnMoney":82,"title":"gravida sem praesent id massa id nisl venenatis lacinia aenean sit","longitude":"21.32667","latitude":"55.55361","address":"9633 Ruskin Hill","creatorId":"199dffa6-5a90-4dd0-9fbf-6ade8af3071d"},
{"id":"926931e1-c31f-452b-b829-412dfc32b582","totalQuantity":64,"discount":19,"totalMoney":56,"returnMoney":57,"title":"eget tempus vel pede morbi porttitor lorem id ligula suspendisse ornare","longitude":"112.2626","latitude":"28.19408","address":"6 Eagle Crest Junction","creatorId":"0ac7a297-3515-4301-bb82-5d3ea2e768a0"},
{"id":"2da777dd-0c1f-44c8-ac22-d26c8f7809b8","totalQuantity":3,"discount":39,"totalMoney":75,"returnMoney":91,"title":"leo rhoncus sed vestibulum sit amet cursus id turpis integer aliquet massa","longitude":"125.41583","latitude":"6.9675","address":"64 Myrtle Parkway","creatorId":"e49cfe1f-126b-4f73-a837-4bccf7f14c06"},
{"id":"8a048e25-c2d7-49fd-af0b-cec973e8e468","totalQuantity":74,"discount":8,"totalMoney":38,"returnMoney":33,"title":"leo maecenas pulvinar lobortis est phasellus sit amet erat nulla tempus vivamus in","longitude":"111.55357","latitude":"31.79065","address":"19557 Laurel Way","creatorId":"963266e4-df9a-49b6-ba87-03c2d1b6f487"},
{"id":"8732e61a-5ee3-4b2f-9151-a30c638fe2c1","totalQuantity":35,"discount":71,"totalMoney":22,"returnMoney":8,"title":"dui vel nisl duis ac nibh fusce lacus purus aliquet at feugiat non pretium quis lectus suspendisse potenti in eleifend","longitude":"122.21178","latitude":"40.66431","address":"086 Meadow Ridge Place","creatorId":"e2e2a91b-c416-4355-b1ed-202da4abf22e"},
{"id":"4b761b1d-97d9-4f43-8abe-ab1bf8796a3e","totalQuantity":18,"discount":8,"totalMoney":57,"returnMoney":69,"title":"ipsum primis in faucibus orci luctus et ultrices posuere cubilia curae","longitude":"113.10551","latitude":"30.11165","address":"5822 Northridge Point","creatorId":"2c2b7aba-1ff7-4801-acd2-47af75672fe7"},
{"id":"8320e660-0753-4ad5-9ffe-fdbce2b40a8f","totalQuantity":8,"discount":55,"totalMoney":95,"returnMoney":80,"title":"integer ac neque duis bibendum morbi non quam nec dui luctus rutrum nulla","longitude":"5.3811","latitude":"43.2969","address":"5038 Rowland Street","creatorId":"b37b043d-b699-4cf7-8398-89fd9b869a4f"},
{"id":"efc9c693-ba45-4a34-b781-6ecd3db3fb65","totalQuantity":32,"discount":3,"totalMoney":31,"returnMoney":64,"title":"quis turpis sed ante vivamus tortor duis mattis egestas metus aenean","longitude":"-2.9833","latitude":"48.0667","address":"9 Susan Avenue","creatorId":"7b4052a9-a30a-4d65-9d0f-9a1f54be7970"},
{"id":"1632aa57-a8f4-4e6f-9550-d4cfeb52b1f1","totalQuantity":54,"discount":45,"totalMoney":32,"returnMoney":53,"title":"elit ac nulla sed vel enim sit amet nunc viverra dapibus nulla suscipit","longitude":"121.2112","latitude":"-8.8892","address":"70932 Ramsey Way","creatorId":"75aa1fc7-5ff3-4db0-a1be-ba0eec35aaf4"},
{"id":"c3e3f56d-9d49-422f-a4c3-9700a49890c2","totalQuantity":73,"discount":57,"totalMoney":81,"returnMoney":65,"title":"integer a nibh in quis justo maecenas rhoncus aliquam lacus morbi quis tortor id nulla ultrices aliquet","longitude":"20.13558","latitude":"45.20359","address":"70 Bunting Alley","creatorId":"e2e2a91b-c416-4355-b1ed-202da4abf22e"},
{"id":"6a11c769-2077-4b4f-8d4d-e8e7b074efdb","totalQuantity":43,"discount":3,"totalMoney":25,"returnMoney":87,"title":"ac leo pellentesque ultrices mattis odio donec vitae nisi nam","longitude":"116.6242","latitude":"-8.5693","address":"065 Pawling Alley","creatorId":"b37b043d-b699-4cf7-8398-89fd9b869a4f"},
{"id":"43c3641f-5eb9-470a-8865-4333a5433db6","totalQuantity":75,"discount":34,"totalMoney":8,"returnMoney":25,"title":"nisi at nibh in hac habitasse platea dictumst aliquam augue quam sollicitudin","longitude":"-70.02367","latitude":"-38.75029","address":"51 Straubel Road","creatorId":"b32d3f99-6d91-429b-bd0d-60101d52b7c1"},
{"id":"4d72711e-49e0-4776-ba56-721bfca10fa0","totalQuantity":55,"discount":6,"totalMoney":33,"returnMoney":48,"title":"elementum pellentesque quisque porta volutpat erat quisque erat eros viverra eget congue eget semper rutrum nulla","longitude":"116.22426","latitude":"29.74296","address":"44 Cottonwood Crossing","creatorId":"0ac7a297-3515-4301-bb82-5d3ea2e768a0"},
{"id":"ef6b4fd9-1ec5-4ec2-9156-13ce4c42e1f9","totalQuantity":54,"discount":18,"totalMoney":22,"returnMoney":99,"title":"fusce congue diam id ornare imperdiet sapien urna pretium nisl ut volutpat sapien arcu sed augue aliquam erat","longitude":"88.89169","latitude":"25.77769","address":"46 Granby Way","creatorId":"c9f60181-89cd-4922-930c-cf4fb16e22db"},
{"id":"d5387ea4-08ef-4a7c-9eaf-93796b1712a5","totalQuantity":27,"discount":48,"totalMoney":57,"returnMoney":52,"title":"arcu libero rutrum ac lobortis vel dapibus at diam nam","longitude":"95.65691","latitude":"32.06672","address":"022 Holy Cross Street","creatorId":"8d6bd71f-22ec-4b6e-8721-d72b80164dae"},
{"id":"8f2d8727-fb7a-4c3b-8930-e82fbfa33292","totalQuantity":37,"discount":85,"totalMoney":7,"returnMoney":29,"title":"consequat morbi a ipsum integer a nibh in quis justo maecenas rhoncus aliquam lacus morbi quis tortor","longitude":"-84.5221","latitude":"39.2663","address":"56859 Manitowish Center","creatorId":"e2e2a91b-c416-4355-b1ed-202da4abf22e"},
{"id":"1ccaff97-71a8-47ac-a06b-75e9ff7ec3a3","totalQuantity":95,"discount":69,"totalMoney":46,"returnMoney":60,"title":"nulla suspendisse potenti cras in purus eu magna vulputate luctus cum","longitude":"113.63424","latitude":"33.9075","address":"5820 School Point","creatorId":"2c2b7aba-1ff7-4801-acd2-47af75672fe7"},
{"id":"e301566b-908f-4ff5-bb21-97e2afca9e23","totalQuantity":3,"discount":89,"totalMoney":10,"returnMoney":93,"title":"urna pretium nisl ut volutpat sapien arcu sed augue aliquam erat volutpat","longitude":"13.0197","latitude":"55.4712","address":"87198 Main Plaza","creatorId":"199dffa6-5a90-4dd0-9fbf-6ade8af3071d"},
{"id":"db53184d-2004-4990-be31-0371c9021660","totalQuantity":2,"discount":40,"totalMoney":13,"returnMoney":40,"title":"in congue etiam justo etiam pretium iaculis justo in hac","longitude":"111.0507","latitude":"-6.5507","address":"6688 Eastwood Lane","creatorId":"c9f60181-89cd-4922-930c-cf4fb16e22db"},
{"id":"08673ec8-27cd-4e5f-a66b-75220b6b9f38","totalQuantity":72,"discount":13,"totalMoney":54,"returnMoney":2,"title":"ipsum dolor sit amet consectetuer adipiscing elit proin risus praesent lectus vestibulum quam sapien varius ut","longitude":"22.48319","latitude":"40.47888","address":"27 Garrison Terrace","creatorId":"f228222f-100d-4f38-80b8-6b5ceae1b6d2"},
{"id":"81518dfb-1f9e-4346-ab8f-ce186769d424","totalQuantity":66,"discount":59,"totalMoney":38,"returnMoney":35,"title":"sapien sapien non mi integer ac neque duis bibendum morbi non quam nec","longitude":"-70.44664","latitude":"19.63552","address":"6 Pierstorff Lane","creatorId":"c9f60181-89cd-4922-930c-cf4fb16e22db"},
{"id":"f71c4ca1-5896-4573-8eeb-dcc8e9ed152b","totalQuantity":48,"discount":92,"totalMoney":86,"returnMoney":49,"title":"ipsum aliquam non mauris morbi non lectus aliquam sit amet diam","longitude":"30.44979","latitude":"-27.0177","address":"0832 Laurel Alley","creatorId":"c9f60181-89cd-4922-930c-cf4fb16e22db"},
{"id":"19cd2c91-b56c-4238-a43a-8e46590ed528","totalQuantity":38,"discount":3,"totalMoney":18,"returnMoney":92,"title":"interdum mauris non ligula pellentesque ultrices phasellus id sapien in sapien iaculis congue vivamus metus arcu adipiscing molestie hendrerit","longitude":"19.0833","latitude":"47.5","address":"921 Clove Junction","creatorId":"013853c5-edda-41cf-b436-8e976e191020"},
{"id":"1c9d67be-575c-40d1-b3f8-5d621e46a865","totalQuantity":84,"discount":78,"totalMoney":20,"returnMoney":21,"title":"etiam vel augue vestibulum rutrum rutrum neque aenean auctor gravida sem praesent id massa","longitude":"-9.35","latitude":"39.3667","address":"29296 Laurel Circle","creatorId":"b37b043d-b699-4cf7-8398-89fd9b869a4f"},
{"id":"8e5e0d7a-49cb-4ed5-8286-b62a2b49d2fd","totalQuantity":39,"discount":84,"totalMoney":11,"returnMoney":82,"title":"rhoncus mauris enim leo rhoncus sed vestibulum sit amet cursus id turpis integer","longitude":"-75.79052","latitude":"8.88479","address":"802 Hauk Way","creatorId":"e49cfe1f-126b-4f73-a837-4bccf7f14c06"},
{"id":"0d5ab8a4-d16c-4585-abbb-88ba0fc76247","totalQuantity":84,"discount":26,"totalMoney":63,"returnMoney":13,"title":"mattis odio donec vitae nisi nam ultrices libero non mattis","longitude":"13.27628","latitude":"49.72988","address":"44863 Continental Hill","creatorId":"8d6bd71f-22ec-4b6e-8721-d72b80164dae"},
{"id":"cf9d3fb1-52e4-4d79-b238-327195b51d8f","totalQuantity":32,"discount":34,"totalMoney":94,"returnMoney":65,"title":"ultrices erat tortor sollicitudin mi sit amet lobortis sapien sapien non mi integer","longitude":"120.1821","latitude":"-9.8323","address":"7123 Mariners Cove Center","creatorId":"856bf7b2-6a02-4bf2-8b99-575ef81152b4"},
{"id":"1a9c6ef1-7c3e-444e-9651-c36bc56ce17b","totalQuantity":38,"discount":17,"totalMoney":51,"returnMoney":83,"title":"gravida sem praesent id massa id nisl venenatis lacinia aenean sit","longitude":"110.58568","latitude":"29.60898","address":"44 Packers Court","creatorId":"f228222f-100d-4f38-80b8-6b5ceae1b6d2"},
{"id":"1aebf1e7-c5da-43a5-9eec-fefe584c2dd1","totalQuantity":18,"discount":86,"totalMoney":87,"returnMoney":79,"title":"ultrices aliquet maecenas leo odio condimentum id luctus nec molestie sed justo pellentesque viverra pede ac diam cras","longitude":"24.30805","latitude":"40.9269","address":"0 Muir Trail","creatorId":"75aa1fc7-5ff3-4db0-a1be-ba0eec35aaf4"},
{"id":"8d50c7fb-b2e9-42e2-adc5-15d502c8436a","totalQuantity":11,"discount":21,"totalMoney":7,"returnMoney":95,"title":"nullam porttitor lacus at turpis donec posuere metus vitae ipsum aliquam non mauris morbi non lectus aliquam sit amet diam","longitude":"114.34322","latitude":"23.65126","address":"3 Shoshone Junction","creatorId":"e2e2a91b-c416-4355-b1ed-202da4abf22e"},
{"id":"faf68285-e6e3-444d-ade0-91e6e9f67e55","totalQuantity":15,"discount":77,"totalMoney":40,"returnMoney":25,"title":"in faucibus orci luctus et ultrices posuere cubilia curae donec pharetra","longitude":"2.4793","latitude":"48.7695","address":"42 Anderson Point","creatorId":"0ac7a297-3515-4301-bb82-5d3ea2e768a0"},
{"id":"2dfdda42-ee6e-418b-bfe4-0ad1e9f4e348","totalQuantity":71,"discount":2,"totalMoney":82,"returnMoney":6,"title":"nisl duis ac nibh fusce lacus purus aliquet at feugiat non pretium quis lectus suspendisse","longitude":"27.80696","latitude":"-18.93149","address":"3 Del Sol Terrace","creatorId":"ba09e11b-9c74-40c7-8d89-d560fd228a91"},
{"id":"5113cbbf-5c25-4b67-8636-970767b7c006","totalQuantity":48,"discount":36,"totalMoney":74,"returnMoney":15,"title":"nibh quisque id justo sit amet sapien dignissim vestibulum vestibulum ante ipsum","longitude":"22.64171","latitude":"49.89983","address":"3576 Clemons Alley","creatorId":"8d6bd71f-22ec-4b6e-8721-d72b80164dae"},
{"id":"95649fc9-83ac-4978-b06d-8cf0b47b1a42","totalQuantity":13,"discount":17,"totalMoney":22,"returnMoney":23,"title":"orci luctus et ultrices posuere cubilia curae duis faucibus accumsan odio curabitur","longitude":"101.6869","latitude":"3.139","address":"20390 Utah Hill","creatorId":"856bf7b2-6a02-4bf2-8b99-575ef81152b4"},
{"id":"be047e4c-b16e-487c-aead-80d38b29fcd1","totalQuantity":29,"discount":78,"totalMoney":60,"returnMoney":45,"title":"fusce posuere felis sed lacus morbi sem mauris laoreet ut rhoncus aliquet pulvinar sed nisl nunc rhoncus dui","longitude":"100.54508","latitude":"7.20411","address":"7 Ilene Place","creatorId":"5f5b7d18-6913-4404-8071-68e9585809a6"},
{"id":"14748d76-3439-4bc4-9ded-d64d69bf4664","totalQuantity":36,"discount":39,"totalMoney":10,"returnMoney":35,"title":"odio cras mi pede malesuada in imperdiet et commodo vulputate justo in","longitude":"68.12824","latitude":"37.52027","address":"2005 Texas Plaza","creatorId":"e49cfe1f-126b-4f73-a837-4bccf7f14c06"},
{"id":"d66eff23-c7a0-40b3-b15e-a8f142c734dd","totalQuantity":3,"discount":82,"totalMoney":57,"returnMoney":64,"title":"ac diam cras pellentesque volutpat dui maecenas tristique est et","longitude":"-42.83667","latitude":"-5.09417","address":"63 Johnson Place","creatorId":"856bf7b2-6a02-4bf2-8b99-575ef81152b4"},
{"id":"70ce7ef7-bd18-4792-a03e-fd392e73c7d0","totalQuantity":64,"discount":31,"totalMoney":80,"returnMoney":42,"title":"quisque ut erat curabitur gravida nisi at nibh in hac","longitude":"117.94638","latitude":"29.92885","address":"85 Tony Trail","creatorId":"f228222f-100d-4f38-80b8-6b5ceae1b6d2"},
{"id":"9cf7dfcc-3b6b-4bcf-8e20-0df5b1cf61d2","totalQuantity":51,"discount":20,"totalMoney":30,"returnMoney":50,"title":"morbi vestibulum velit id pretium iaculis diam erat fermentum justo nec condimentum neque sapien placerat","longitude":"21.7603","latitude":"44.52223","address":"42 Mallory Terrace","creatorId":"8d6bd71f-22ec-4b6e-8721-d72b80164dae"},
{"id":"5c39202b-1032-43eb-8104-9a104044afdf","totalQuantity":40,"discount":67,"totalMoney":95,"returnMoney":35,"title":"dis parturient montes nascetur ridiculus mus etiam vel augue vestibulum rutrum rutrum neque aenean auctor gravida sem praesent id massa","longitude":"113.5076","latitude":"-8.2987","address":"8148 Stephen Parkway","creatorId":"0ac7a297-3515-4301-bb82-5d3ea2e768a0"},
{"id":"4110f2b4-1ebf-4f14-ab6e-434ac540a646","totalQuantity":25,"discount":19,"totalMoney":86,"returnMoney":22,"title":"mattis nibh ligula nec sem duis aliquam convallis nunc proin at turpis a pede posuere nonummy integer non velit donec","longitude":"-3.3667","latitude":"47.75","address":"17 Westridge Drive","creatorId":"963266e4-df9a-49b6-ba87-03c2d1b6f487"},
{"id":"0f8bd515-2821-404b-8357-51176349a56b","totalQuantity":11,"discount":35,"totalMoney":18,"returnMoney":81,"title":"ac neque duis bibendum morbi non quam nec dui luctus rutrum nulla","longitude":"115.2792","latitude":"-8.4366","address":"632 American Center","creatorId":"e49cfe1f-126b-4f73-a837-4bccf7f14c06"},
{"id":"f30e04e5-10ba-41a6-9e0b-fffe2d157c69","totalQuantity":1,"discount":10,"totalMoney":85,"returnMoney":90,"title":"nulla eget eros elementum pellentesque quisque porta volutpat erat quisque erat eros viverra","longitude":"12.9401","latitude":"57.721","address":"94 Drewry Crossing","creatorId":"2c2b7aba-1ff7-4801-acd2-47af75672fe7"},
{"id":"64396835-135d-4482-96ab-872b9513d9fa","totalQuantity":4,"discount":3,"totalMoney":59,"returnMoney":31,"title":"vitae nisi nam ultrices libero non mattis pulvinar nulla pede ullamcorper augue a suscipit nulla elit ac nulla","longitude":"135.43333","latitude":"34.48333","address":"81423 Glendale Way","creatorId":"b32d3f99-6d91-429b-bd0d-60101d52b7c1"},
{"id":"074bb7af-837f-4fef-9c62-8aaba11e7bd9","totalQuantity":77,"discount":79,"totalMoney":99,"returnMoney":34,"title":"ipsum primis in faucibus orci luctus et ultrices posuere cubilia","longitude":"114.61138","latitude":"25.2533","address":"9681 Scoville Avenue","creatorId":"199dffa6-5a90-4dd0-9fbf-6ade8af3071d"},
{"id":"c83f9e50-b263-4fe2-908e-2cfe0f7c11a0","totalQuantity":57,"discount":59,"totalMoney":12,"returnMoney":25,"title":"in sapien iaculis congue vivamus metus arcu adipiscing molestie hendrerit at vulputate vitae nisl aenean lectus pellentesque","longitude":"120.09834","latitude":"40.19084","address":"1075 Macpherson Terrace","creatorId":"8d6bd71f-22ec-4b6e-8721-d72b80164dae"},
{"id":"cf73c7e6-e01b-4f9f-b003-b3a195c9f2f5","totalQuantity":37,"discount":69,"totalMoney":15,"returnMoney":33,"title":"elementum eu interdum eu tincidunt in leo maecenas pulvinar lobortis est phasellus sit amet erat nulla tempus","longitude":"34.34691","latitude":"61.78491","address":"222 Shoshone Park","creatorId":"82b705b7-2c27-4a37-8994-c6ad9e52be45"},
{"id":"5cf8ffb6-97d2-4fe2-88aa-9d0e1f0f488c","totalQuantity":48,"discount":12,"totalMoney":56,"returnMoney":73,"title":"mauris ullamcorper purus sit amet nulla quisque arcu libero rutrum ac lobortis vel dapibus at diam nam tristique tortor eu","longitude":"116.67586","latitude":"26.5769","address":"80752 Service Place","creatorId":"7b4052a9-a30a-4d65-9d0f-9a1f54be7970"},
{"id":"101c2208-3992-4cfc-8780-0644a2cfa3a9","totalQuantity":98,"discount":80,"totalMoney":41,"returnMoney":55,"title":"accumsan tortor quis turpis sed ante vivamus tortor duis mattis egestas","longitude":"120.75595","latitude":"14.02074","address":"360 Tennessee Way","creatorId":"e49cfe1f-126b-4f73-a837-4bccf7f14c06"},
{"id":"f6b4b5a0-87e8-4385-ac38-f4a26a4f1f6f","totalQuantity":69,"discount":59,"totalMoney":23,"returnMoney":78,"title":"feugiat non pretium quis lectus suspendisse potenti in eleifend quam a odio in","longitude":"115.93354","latitude":"24.22841","address":"56 Crescent Oaks Center","creatorId":"e2e2a91b-c416-4355-b1ed-202da4abf22e"},
{"id":"ed7e89e6-84a7-45bd-b01c-76ba042f9193","totalQuantity":83,"discount":93,"totalMoney":92,"returnMoney":73,"title":"hac habitasse platea dictumst aliquam augue quam sollicitudin vitae consectetuer eget","longitude":"18.72311","latitude":"51.80384","address":"7 Parkside Way","creatorId":"82b705b7-2c27-4a37-8994-c6ad9e52be45"},
{"id":"9f2e0e5f-c782-4b0b-a823-49512ffdfb03","totalQuantity":82,"discount":1,"totalMoney":48,"returnMoney":97,"title":"hac habitasse platea dictumst morbi vestibulum velit id pretium iaculis diam erat fermentum justo nec","longitude":"-95.447","latitude":"30.0167","address":"730 Blue Bill Park Drive","creatorId":"e2e2a91b-c416-4355-b1ed-202da4abf22e"},
{"id":"130078da-8015-45bb-9cd8-c99cc3bf97e4","totalQuantity":5,"discount":26,"totalMoney":85,"returnMoney":59,"title":"consequat morbi a ipsum integer a nibh in quis justo maecenas rhoncus","longitude":"-81.6443","latitude":"41.1002","address":"00518 Buhler Crossing","creatorId":"b37b043d-b699-4cf7-8398-89fd9b869a4f"},
{"id":"0edf6782-2f5e-432d-8d32-a4ea7ddb828d","totalQuantity":30,"discount":100,"totalMoney":91,"returnMoney":8,"title":"non sodales sed tincidunt eu felis fusce posuere felis sed lacus morbi","longitude":"30.99507","latitude":"59.88101","address":"05612 Bunker Hill Crossing","creatorId":"0ac7a297-3515-4301-bb82-5d3ea2e768a0"},
{"id":"24544ed1-66dc-4120-985b-2667798d6394","totalQuantity":43,"discount":29,"totalMoney":22,"returnMoney":56,"title":"tincidunt nulla mollis molestie lorem quisque ut erat curabitur gravida nisi at nibh in hac habitasse","longitude":"23.61667","latitude":"62.58333","address":"2 Stuart Crossing","creatorId":"2c2b7aba-1ff7-4801-acd2-47af75672fe7"},
{"id":"02877909-2535-4227-823c-647c65989aa4","totalQuantity":18,"discount":23,"totalMoney":50,"returnMoney":60,"title":"in felis eu sapien cursus vestibulum proin eu mi nulla ac enim in","longitude":"109.15308","latitude":"34.36089","address":"924 Golf Lane","creatorId":"963266e4-df9a-49b6-ba87-03c2d1b6f487"},
{"id":"fd2b7ba3-74f7-4d47-831b-355c6d81141b","totalQuantity":71,"discount":79,"totalMoney":80,"returnMoney":14,"title":"diam id ornare imperdiet sapien urna pretium nisl ut volutpat sapien arcu sed augue","longitude":"-121.44144","latitude":"49.38299","address":"76 2nd Lane","creatorId":"2c2b7aba-1ff7-4801-acd2-47af75672fe7"},
{"id":"4e77d1ed-6fb7-49c1-b920-eee962c2b720","totalQuantity":24,"discount":38,"totalMoney":50,"returnMoney":64,"title":"nisl duis ac nibh fusce lacus purus aliquet at feugiat non pretium quis lectus suspendisse potenti in eleifend quam a","longitude":"120.72565","latitude":"15.4425","address":"390 Havey Court","creatorId":"2c2b7aba-1ff7-4801-acd2-47af75672fe7"},
{"id":"2b65580e-53f0-42de-b15f-5fb197029402","totalQuantity":100,"discount":59,"totalMoney":69,"returnMoney":3,"title":"morbi porttitor lorem id ligula suspendisse ornare consequat lectus in est risus auctor sed tristique in tempus sit amet","longitude":"111.2","latitude":"45.8","address":"619 Melby Park","creatorId":"7b4052a9-a30a-4d65-9d0f-9a1f54be7970"},
{"id":"1196b0d5-36f2-49cf-9668-2b12a3b57763","totalQuantity":32,"discount":65,"totalMoney":42,"returnMoney":58,"title":"felis fusce posuere felis sed lacus morbi sem mauris laoreet ut rhoncus aliquet pulvinar sed nisl nunc rhoncus","longitude":"111.8582","latitude":"-8.1145","address":"74 Prairieview Trail","creatorId":"e49cfe1f-126b-4f73-a837-4bccf7f14c06"},
{"id":"5eafbca2-d2c9-488a-ac06-c6c57c105d8c","totalQuantity":7,"discount":6,"totalMoney":52,"returnMoney":74,"title":"placerat praesent blandit nam nulla integer pede justo lacinia eget tincidunt eget tempus vel pede morbi porttitor lorem id","longitude":"31.52583","latitude":"-3.28333","address":"334 Oneill Hill","creatorId":"013853c5-edda-41cf-b436-8e976e191020"},
{"id":"b67616d4-66ed-4025-bc9f-4d936449aa76","totalQuantity":37,"discount":96,"totalMoney":9,"returnMoney":32,"title":"porttitor lorem id ligula suspendisse ornare consequat lectus in est risus auctor sed","longitude":"-87.41667","latitude":"14.75","address":"80320 Kensington Alley","creatorId":"013853c5-edda-41cf-b436-8e976e191020"},
{"id":"d0ff003a-f034-40c7-a81d-45b0c3ddf5fa","totalQuantity":33,"discount":45,"totalMoney":87,"returnMoney":39,"title":"diam vitae quam suspendisse potenti nullam porttitor lacus at turpis donec posuere metus vitae ipsum","longitude":"-77.96861","latitude":"-6.41417","address":"1 Glacier Hill Way","creatorId":"963266e4-df9a-49b6-ba87-03c2d1b6f487"},
{"id":"93d6ba8f-5eea-4263-bcf1-77beba074b94","totalQuantity":78,"discount":61,"totalMoney":69,"returnMoney":71,"title":"ligula suspendisse ornare consequat lectus in est risus auctor sed tristique in tempus sit amet sem fusce consequat","longitude":"112.0502","latitude":"-6.9137","address":"952 Vermont Point","creatorId":"5f5b7d18-6913-4404-8071-68e9585809a6"},
{"id":"e70d3445-d9a2-4e78-aaf7-c2eafacc1c13","totalQuantity":17,"discount":15,"totalMoney":31,"returnMoney":33,"title":"purus sit amet nulla quisque arcu libero rutrum ac lobortis","longitude":"38.17743","latitude":"55.59728","address":"76 Paget Alley","creatorId":"b37b043d-b699-4cf7-8398-89fd9b869a4f"},
{"id":"6273184f-7a98-43d8-befc-9eacf6c4532b","totalQuantity":37,"discount":66,"totalMoney":85,"returnMoney":10,"title":"a pede posuere nonummy integer non velit donec diam neque vestibulum eget vulputate ut ultrices vel augue vestibulum ante","longitude":"-7.8036","latitude":"38.0357","address":"6604 Maple Wood Drive","creatorId":"013853c5-edda-41cf-b436-8e976e191020"},
{"id":"775ef2e7-fcf8-477e-9795-57d2cd6e62b3","totalQuantity":84,"discount":18,"totalMoney":85,"returnMoney":7,"title":"eget nunc donec quis orci eget orci vehicula condimentum curabitur in libero ut massa volutpat convallis morbi odio odio","longitude":"-73.9325","latitude":"45.36678","address":"506 Riverside Center","creatorId":"3e03f53b-24d0-47b2-9e1f-5420d1782c7f"},
{"id":"8daf4017-c77b-4c04-af4a-c55706fca5e1","totalQuantity":48,"discount":31,"totalMoney":44,"returnMoney":34,"title":"ultrices mattis odio donec vitae nisi nam ultrices libero non mattis","longitude":"-76.95","latitude":"-12.08333","address":"4195 Nancy Circle","creatorId":"856bf7b2-6a02-4bf2-8b99-575ef81152b4"},
{"id":"72e6bdb2-a29b-41a7-878b-7b15389fede9","totalQuantity":79,"discount":4,"totalMoney":51,"returnMoney":80,"title":"id ornare imperdiet sapien urna pretium nisl ut volutpat sapien arcu sed augue aliquam erat","longitude":"39.83336","latitude":"54.7897","address":"32848 Sauthoff Park","creatorId":"856bf7b2-6a02-4bf2-8b99-575ef81152b4"},
{"id":"945c3c05-b443-4b94-ba8f-f5ebf619cf5b","totalQuantity":55,"discount":67,"totalMoney":5,"returnMoney":90,"title":"hac habitasse platea dictumst maecenas ut massa quis augue luctus tincidunt nulla mollis molestie","longitude":"-42.48361","latitude":"-19.22","address":"9107 Dovetail Center","creatorId":"963266e4-df9a-49b6-ba87-03c2d1b6f487"},
{"id":"f71a397a-73eb-42c8-81aa-37faf315526f","totalQuantity":51,"discount":69,"totalMoney":97,"returnMoney":47,"title":"sodales sed tincidunt eu felis fusce posuere felis sed lacus morbi sem mauris laoreet ut rhoncus aliquet","longitude":"17.51671","latitude":"49.09855","address":"0 Mariners Cove Court","creatorId":"2c2b7aba-1ff7-4801-acd2-47af75672fe7"},
{"id":"c49f83b4-529f-410d-a404-333ad4873d50","totalQuantity":20,"discount":55,"totalMoney":62,"returnMoney":61,"title":"ligula in lacus curabitur at ipsum ac tellus semper interdum mauris ullamcorper purus sit amet nulla","longitude":"106.0792","latitude":"-6.3638","address":"04 Clemons Street","creatorId":"013853c5-edda-41cf-b436-8e976e191020"},
{"id":"411bca34-86f3-47fc-bdad-c0648a1758ad","totalQuantity":1,"discount":10,"totalMoney":13,"returnMoney":70,"title":"ac neque duis bibendum morbi non quam nec dui luctus rutrum nulla tellus in sagittis dui","longitude":"101.42806","latitude":"49.12667","address":"114 Clarendon Center","creatorId":"91be2839-72f3-42b8-ba6a-d66a18586d37"},
{"id":"0266b50a-5206-4831-8ee0-9b32a4d70029","totalQuantity":90,"discount":19,"totalMoney":69,"returnMoney":58,"title":"hac habitasse platea dictumst maecenas ut massa quis augue luctus","longitude":"20.97548","latitude":"50.093","address":"21395 Hallows Point","creatorId":"82b705b7-2c27-4a37-8994-c6ad9e52be45"},
{"id":"d291a1c3-6f9f-4627-846c-73d2b9446e7e","totalQuantity":45,"discount":15,"totalMoney":12,"returnMoney":11,"title":"eleifend pede libero quis orci nullam molestie nibh in lectus pellentesque at","longitude":"-91.095","latitude":"15.78722","address":"605 Kim Avenue","creatorId":"82b705b7-2c27-4a37-8994-c6ad9e52be45"},
{"id":"5f13ccaf-2a8f-4dfb-b605-c8d9d032ad46","totalQuantity":2,"discount":51,"totalMoney":45,"returnMoney":85,"title":"a nibh in quis justo maecenas rhoncus aliquam lacus morbi quis tortor","longitude":"35.75362","latitude":"46.8315","address":"757 Toban Road","creatorId":"91be2839-72f3-42b8-ba6a-d66a18586d37"},
{"id":"263f52b8-4ea0-43a5-81f1-aecdaa62e054","totalQuantity":10,"discount":7,"totalMoney":14,"returnMoney":91,"title":"quam suspendisse potenti nullam porttitor lacus at turpis donec posuere metus vitae","longitude":"107.0083","latitude":"-7.2356","address":"6 Merchant Alley","creatorId":"e49cfe1f-126b-4f73-a837-4bccf7f14c06"},
{"id":"ea265a3b-5450-4e22-a764-4380a6be5910","totalQuantity":47,"discount":97,"totalMoney":13,"returnMoney":23,"title":"sollicitudin ut suscipit a feugiat et eros vestibulum ac est lacinia nisi venenatis tristique fusce congue","longitude":"112.4793","latitude":"-7.0225","address":"0758 Independence Drive","creatorId":"199dffa6-5a90-4dd0-9fbf-6ade8af3071d"},
{"id":"5144df33-8ba8-4fa1-ad36-f9d43bf6a2a1","totalQuantity":10,"discount":38,"totalMoney":85,"returnMoney":12,"title":"nibh ligula nec sem duis aliquam convallis nunc proin at turpis a","longitude":"32.52222","latitude":"0.20806","address":"84 Division Pass","creatorId":"199dffa6-5a90-4dd0-9fbf-6ade8af3071d"},
{"id":"301c0880-20d2-4a71-8d2f-c9d4b79272bc","totalQuantity":22,"discount":96,"totalMoney":74,"returnMoney":95,"title":"sem mauris laoreet ut rhoncus aliquet pulvinar sed nisl nunc rhoncus dui vel sem sed sagittis nam congue risus semper","longitude":"-47.29917","latitude":"-23.26417","address":"0 Independence Circle","creatorId":"5f5b7d18-6913-4404-8071-68e9585809a6"},
{"id":"b5f982ea-3372-44ff-acaf-f44f69a0d0b3","totalQuantity":100,"discount":33,"totalMoney":76,"returnMoney":84,"title":"nisl venenatis lacinia aenean sit amet justo morbi ut odio cras mi pede malesuada in imperdiet et commodo vulputate justo","longitude":"121.5018","latitude":"17.7152","address":"4475 Clarendon Pass","creatorId":"3e03f53b-24d0-47b2-9e1f-5420d1782c7f"},
{"id":"0563c4ae-892b-4ddf-9e9e-32a884dcb4a9","totalQuantity":11,"discount":60,"totalMoney":22,"returnMoney":33,"title":"justo morbi ut odio cras mi pede malesuada in imperdiet et commodo","longitude":"-8.5056","latitude":"41.9611","address":"6 Warner Court","creatorId":"0ac7a297-3515-4301-bb82-5d3ea2e768a0"},
{"id":"235377ff-c08a-44e9-9e12-c17f0ac08caf","totalQuantity":60,"discount":76,"totalMoney":58,"returnMoney":2,"title":"ante vestibulum ante ipsum primis in faucibus orci luctus et ultrices posuere cubilia curae duis faucibus accumsan odio curabitur","longitude":"123.1609","latitude":"-8.3153","address":"06 Artisan Lane","creatorId":"c9f60181-89cd-4922-930c-cf4fb16e22db"},
{"id":"f0cd25b9-67d0-4cd4-866b-329f9b203c57","totalQuantity":68,"discount":43,"totalMoney":64,"returnMoney":3,"title":"non ligula pellentesque ultrices phasellus id sapien in sapien iaculis congue vivamus metus arcu adipiscing molestie hendrerit at","longitude":"-12.45205","latitude":"22.71873","address":"299 Springs Avenue","creatorId":"013853c5-edda-41cf-b436-8e976e191020"},
{"id":"b12b79f3-61bf-4418-9a1a-127e558b5b41","totalQuantity":73,"discount":62,"totalMoney":59,"returnMoney":36,"title":"consequat lectus in est risus auctor sed tristique in tempus","longitude":"14.95","latitude":"46.15","address":"1 Mosinee Drive","creatorId":"013853c5-edda-41cf-b436-8e976e191020"},
{"id":"769ad9d5-e7d5-42c2-9123-ce8fc03e097d","totalQuantity":37,"discount":44,"totalMoney":94,"returnMoney":97,"title":"lectus suspendisse potenti in eleifend quam a odio in hac habitasse platea dictumst maecenas ut","longitude":"120.49981","latitude":"28.06951","address":"2 Village Terrace","creatorId":"e49cfe1f-126b-4f73-a837-4bccf7f14c06"},
{"id":"dabe2a10-45e2-4bfd-b3a9-8f5c2944bf2f","totalQuantity":97,"discount":76,"totalMoney":50,"returnMoney":6,"title":"libero ut massa volutpat convallis morbi odio odio elementum eu interdum eu tincidunt in leo maecenas pulvinar","longitude":"123.6148","latitude":"13.2268","address":"22 Red Cloud Parkway","creatorId":"b37b043d-b699-4cf7-8398-89fd9b869a4f"},
{"id":"a24a08e0-b34b-4afa-a2df-aa1631b7c440","totalQuantity":6,"discount":11,"totalMoney":95,"returnMoney":34,"title":"molestie sed justo pellentesque viverra pede ac diam cras pellentesque volutpat dui maecenas tristique est","longitude":"15.39333","latitude":"44.07139","address":"4683 Kings Avenue","creatorId":"b37b043d-b699-4cf7-8398-89fd9b869a4f"},
{"id":"b5acf413-c98d-4b15-b1df-4fa8c8a9881e","totalQuantity":34,"discount":18,"totalMoney":21,"returnMoney":12,"title":"enim lorem ipsum dolor sit amet consectetuer adipiscing elit proin interdum mauris non ligula","longitude":"-58.32148","latitude":"-32.66625","address":"75 Sunnyside Circle","creatorId":"75aa1fc7-5ff3-4db0-a1be-ba0eec35aaf4"},
{"id":"850874de-b9df-41e0-a257-b561ac9e57d5","totalQuantity":79,"discount":88,"totalMoney":91,"returnMoney":21,"title":"ante nulla justo aliquam quis turpis eget elit sodales scelerisque","longitude":"65.32583","latitude":"55.355","address":"59129 Starling Park","creatorId":"8d6bd71f-22ec-4b6e-8721-d72b80164dae"},
{"id":"df1dcc91-29cc-4a79-9cdb-25f12faf05b8","totalQuantity":58,"discount":36,"totalMoney":36,"returnMoney":32,"title":"risus semper porta volutpat quam pede lobortis ligula sit amet eleifend pede libero quis orci nullam","longitude":"12.14626","latitude":"10.73115","address":"1393 Prentice Hill","creatorId":"b37b043d-b699-4cf7-8398-89fd9b869a4f"},
{"id":"0e7d6dd1-8099-4baf-af68-d42e69254f4a","totalQuantity":17,"discount":52,"totalMoney":36,"returnMoney":41,"title":"nibh in hac habitasse platea dictumst aliquam augue quam sollicitudin vitae consectetuer eget rutrum at","longitude":"122.86473","latitude":"-10.84712","address":"10 Quincy Terrace","creatorId":"75aa1fc7-5ff3-4db0-a1be-ba0eec35aaf4"},
{"id":"178b2894-3207-4949-8fe6-e128438474a8","totalQuantity":64,"discount":92,"totalMoney":21,"returnMoney":37,"title":"nam nulla integer pede justo lacinia eget tincidunt eget tempus vel","longitude":"13.6609","latitude":"55.8524","address":"5223 Sundown Point","creatorId":"ba09e11b-9c74-40c7-8d89-d560fd228a91"},
{"id":"724bacc1-39df-4fad-9774-bdc24bac069a","totalQuantity":95,"discount":81,"totalMoney":51,"returnMoney":44,"title":"vel accumsan tellus nisi eu orci mauris lacinia sapien quis libero nullam sit amet turpis","longitude":"119.22417","latitude":"34.56167","address":"354 Boyd Drive","creatorId":"2c2b7aba-1ff7-4801-acd2-47af75672fe7"},
{"id":"859b3aac-0489-47bc-a999-65cab2454571","totalQuantity":50,"discount":16,"totalMoney":68,"returnMoney":88,"title":"morbi vel lectus in quam fringilla rhoncus mauris enim leo rhoncus sed vestibulum sit amet cursus id","longitude":"18.0833","latitude":"59.25","address":"1 Miller Hill","creatorId":"0ac7a297-3515-4301-bb82-5d3ea2e768a0"},
{"id":"4bd1d5f2-e694-411d-b62d-3243df0fdf4f","totalQuantity":100,"discount":99,"totalMoney":87,"returnMoney":30,"title":"tincidunt eu felis fusce posuere felis sed lacus morbi sem mauris","longitude":"117.3193","latitude":"-8.5721","address":"1898 Fair Oaks Place","creatorId":"e2e2a91b-c416-4355-b1ed-202da4abf22e"},
{"id":"c7144e22-81b1-49ed-b6fd-cdb5687a517c","totalQuantity":31,"discount":35,"totalMoney":78,"returnMoney":46,"title":"turpis integer aliquet massa id lobortis convallis tortor risus dapibus augue vel accumsan tellus nisi eu","longitude":"37.9","latitude":"-4.5","address":"08667 Bultman Crossing","creatorId":"ba09e11b-9c74-40c7-8d89-d560fd228a91"},
{"id":"4dfecbe5-a213-41a0-a940-d019415faef9","totalQuantity":84,"discount":98,"totalMoney":72,"returnMoney":40,"title":"amet erat nulla tempus vivamus in felis eu sapien cursus vestibulum proin","longitude":"117.85472","latitude":"29.24972","address":"356 Vermont Junction","creatorId":"75aa1fc7-5ff3-4db0-a1be-ba0eec35aaf4"},
{"id":"00b288de-af59-4224-a040-80ab6909162e","totalQuantity":22,"discount":1,"totalMoney":5,"returnMoney":11,"title":"odio consequat varius integer ac leo pellentesque ultrices mattis odio donec vitae","longitude":"123.48648","latitude":"-8.24579","address":"32 Columbus Crossing","creatorId":"3e03f53b-24d0-47b2-9e1f-5420d1782c7f"},
{"id":"8ce5cb5f-42d2-4b1d-8d89-ff143c02180d","totalQuantity":5,"discount":62,"totalMoney":1,"returnMoney":18,"title":"nec euismod scelerisque quam turpis adipiscing lorem vitae mattis nibh ligula nec sem","longitude":"36.34507","latitude":"47.47114","address":"89868 Kipling Street","creatorId":"3e03f53b-24d0-47b2-9e1f-5420d1782c7f"},
{"id":"42b542af-1b28-485b-b614-c57e7b5dd1dd","totalQuantity":40,"discount":67,"totalMoney":9,"returnMoney":22,"title":"nibh fusce lacus purus aliquet at feugiat non pretium quis lectus suspendisse","longitude":"110.16211","latitude":"30.18268","address":"93712 Del Sol Hill","creatorId":"2c2b7aba-1ff7-4801-acd2-47af75672fe7"},
{"id":"76d173ea-35f6-4b48-ac32-fd2d33b95228","totalQuantity":95,"discount":21,"totalMoney":62,"returnMoney":46,"title":"pellentesque ultrices phasellus id sapien in sapien iaculis congue vivamus metus arcu adipiscing molestie hendrerit at vulputate vitae","longitude":"-8.49083","latitude":"31.10783","address":"7 Susan Terrace","creatorId":"ba09e11b-9c74-40c7-8d89-d560fd228a91"},
{"id":"caf054aa-b3d2-4558-a858-bab095bdc496","totalQuantity":27,"discount":36,"totalMoney":50,"returnMoney":93,"title":"nisl ut volutpat sapien arcu sed augue aliquam erat volutpat in congue etiam justo etiam pretium iaculis justo","longitude":"17.9711","latitude":"59.3613","address":"5317 Hoepker Crossing","creatorId":"e2e2a91b-c416-4355-b1ed-202da4abf22e"},
{"id":"a20ebb45-1f59-46bc-b43e-fc908924cd7c","totalQuantity":32,"discount":59,"totalMoney":51,"returnMoney":98,"title":"sociis natoque penatibus et magnis dis parturient montes nascetur ridiculus mus","longitude":"106.55005","latitude":"33.13037","address":"3 Arapahoe Center","creatorId":"b32d3f99-6d91-429b-bd0d-60101d52b7c1"},
{"id":"2fa13de2-d914-409f-bcc0-69d62a1fc92d","totalQuantity":70,"discount":88,"totalMoney":7,"returnMoney":48,"title":"dis parturient montes nascetur ridiculus mus etiam vel augue vestibulum rutrum","longitude":"-84.474","latitude":"33.8444","address":"6 Merry Street","creatorId":"963266e4-df9a-49b6-ba87-03c2d1b6f487"},
{"id":"c38e54bd-8f4b-41bc-8349-0c7282b49c21","totalQuantity":23,"discount":1,"totalMoney":85,"returnMoney":42,"title":"ultrices vel augue vestibulum ante ipsum primis in faucibus orci","longitude":"-77.5851","latitude":"20.04478","address":"14174 Randy Trail","creatorId":"e2e2a91b-c416-4355-b1ed-202da4abf22e"},
{"id":"536ab590-83b0-475b-85ab-ca9d687e99a6","totalQuantity":90,"discount":22,"totalMoney":88,"returnMoney":80,"title":"donec odio justo sollicitudin ut suscipit a feugiat et eros vestibulum ac est","longitude":"-51.79167","latitude":"-23.485","address":"18316 Annamark Street","creatorId":"75aa1fc7-5ff3-4db0-a1be-ba0eec35aaf4"},
{"id":"2aa82fd1-42e5-4b08-9c63-da80989a6d02","totalQuantity":58,"discount":16,"totalMoney":23,"returnMoney":82,"title":"eu mi nulla ac enim in tempor turpis nec euismod","longitude":"119.3203","latitude":"-9.597","address":"27539 Barby Trail","creatorId":"91be2839-72f3-42b8-ba6a-d66a18586d37"},
{"id":"2291596f-7dd4-4460-8ee5-c0886cbc9885","totalQuantity":44,"discount":50,"totalMoney":75,"returnMoney":35,"title":"odio in hac habitasse platea dictumst maecenas ut massa quis augue luctus tincidunt nulla mollis molestie","longitude":"80.7712","latitude":"34.0642","address":"0502 Rutledge Court","creatorId":"199dffa6-5a90-4dd0-9fbf-6ade8af3071d"},
{"id":"94e101b9-a610-427d-b451-b6e19aa1b15d","totalQuantity":89,"discount":93,"totalMoney":73,"returnMoney":85,"title":"ac neque duis bibendum morbi non quam nec dui luctus rutrum nulla tellus in","longitude":"61.69627","latitude":"57.85158","address":"3 Sunnyside Drive","creatorId":"f228222f-100d-4f38-80b8-6b5ceae1b6d2"},
{"id":"051a6b47-6726-4ba5-a123-1906c5ca17c1","totalQuantity":36,"discount":21,"totalMoney":38,"returnMoney":56,"title":"ac nibh fusce lacus purus aliquet at feugiat non pretium quis lectus suspendisse potenti in eleifend","longitude":"124.6658","latitude":"-9.6136","address":"7785 Glacier Hill Street","creatorId":"e2e2a91b-c416-4355-b1ed-202da4abf22e"},
{"id":"117cec2f-b068-4a2a-9474-8144d12ac84b","totalQuantity":88,"discount":62,"totalMoney":73,"returnMoney":41,"title":"duis ac nibh fusce lacus purus aliquet at feugiat non pretium quis lectus suspendisse potenti in eleifend quam","longitude":"124.80222","latitude":"8.77528","address":"940 Prairieview Court","creatorId":"c9f60181-89cd-4922-930c-cf4fb16e22db"},
{"id":"0469dc84-35a7-404f-b7d9-4bc31c2291b6","totalQuantity":11,"discount":74,"totalMoney":10,"returnMoney":43,"title":"consequat dui nec nisi volutpat eleifend donec ut dolor morbi vel lectus in quam fringilla rhoncus","longitude":"2.2389","latitude":"48.8834","address":"83 Melody Alley","creatorId":"0ac7a297-3515-4301-bb82-5d3ea2e768a0"},
{"id":"8988423e-fa28-426b-880a-0698df1ee331","totalQuantity":47,"discount":72,"totalMoney":97,"returnMoney":57,"title":"a odio in hac habitasse platea dictumst maecenas ut massa quis","longitude":"112.00339","latitude":"23.07729","address":"55719 Mendota Hill","creatorId":"963266e4-df9a-49b6-ba87-03c2d1b6f487"},
{"id":"5a6778d0-ded8-42b5-a6e5-391fbf111a80","totalQuantity":4,"discount":53,"totalMoney":12,"returnMoney":73,"title":"suscipit a feugiat et eros vestibulum ac est lacinia nisi venenatis tristique fusce congue diam id ornare","longitude":"55.4781","latitude":"-21.3393","address":"23285 Esch Point","creatorId":"0ac7a297-3515-4301-bb82-5d3ea2e768a0"},
{"id":"bf70def3-3465-46aa-949c-b46371549bc1","totalQuantity":52,"discount":16,"totalMoney":49,"returnMoney":64,"title":"morbi ut odio cras mi pede malesuada in imperdiet et commodo vulputate justo in blandit ultrices enim lorem","longitude":"115.60509","latitude":"27.70569","address":"902 Talmadge Road","creatorId":"7b4052a9-a30a-4d65-9d0f-9a1f54be7970"},
{"id":"7c805773-ab79-4fb3-b9d8-8e573b357444","totalQuantity":62,"discount":52,"totalMoney":40,"returnMoney":92,"title":"in quam fringilla rhoncus mauris enim leo rhoncus sed vestibulum sit","longitude":"100.59436","latitude":"54.39948","address":"77384 Sutherland Alley","creatorId":"91be2839-72f3-42b8-ba6a-d66a18586d37"},
{"id":"cc9a31d5-2a25-4bc4-82f0-14be295b66df","totalQuantity":25,"discount":25,"totalMoney":38,"returnMoney":89,"title":"vitae ipsum aliquam non mauris morbi non lectus aliquam sit amet","longitude":"58.03948","latitude":"36.40394","address":"5906 Loeprich Crossing","creatorId":"b32d3f99-6d91-429b-bd0d-60101d52b7c1"},
{"id":"10640cb6-d450-45ca-8b93-3c20422c4666","totalQuantity":21,"discount":93,"totalMoney":36,"returnMoney":37,"title":"lorem quisque ut erat curabitur gravida nisi at nibh in hac habitasse platea","longitude":"111.6101","latitude":"-8.3077","address":"325 Lerdahl Circle","creatorId":"82b705b7-2c27-4a37-8994-c6ad9e52be45"},
{"id":"05f1fc1b-2c1f-4465-9d21-820107cf13ea","totalQuantity":23,"discount":60,"totalMoney":60,"returnMoney":4,"title":"nunc proin at turpis a pede posuere nonummy integer non velit donec diam neque vestibulum eget vulputate ut ultrices","longitude":"87.12908","latitude":"44.0467","address":"6155 Mccormick Point","creatorId":"e49cfe1f-126b-4f73-a837-4bccf7f14c06"},
{"id":"eb9f61f8-8118-4c1e-b156-a81275a3ddca","totalQuantity":57,"discount":9,"totalMoney":16,"returnMoney":54,"title":"lorem integer tincidunt ante vel ipsum praesent blandit lacinia erat vestibulum sed magna at nunc commodo placerat praesent blandit","longitude":"101.6083","latitude":"3.1071","address":"4 Wayridge Court","creatorId":"0ac7a297-3515-4301-bb82-5d3ea2e768a0"},
{"id":"ee5cd73a-d35e-4d6f-bf64-02fb60ebe8f9","totalQuantity":95,"discount":85,"totalMoney":57,"returnMoney":71,"title":"sit amet erat nulla tempus vivamus in felis eu sapien cursus vestibulum proin eu","longitude":"106.00383","latitude":"29.70472","address":"7318 Darwin Crossing","creatorId":"0ac7a297-3515-4301-bb82-5d3ea2e768a0"},
{"id":"62c9a0d3-0188-4d5c-b14c-93ea3d6a6df4","totalQuantity":12,"discount":56,"totalMoney":4,"returnMoney":2,"title":"nisl nunc rhoncus dui vel sem sed sagittis nam congue risus semper porta volutpat quam pede lobortis ligula sit amet","longitude":"-86.28333","latitude":"12.51667","address":"04173 West Circle","creatorId":"5f5b7d18-6913-4404-8071-68e9585809a6"},
{"id":"2a9e109a-08a4-44ad-bb94-29d7b2b2f6b8","totalQuantity":70,"discount":14,"totalMoney":17,"returnMoney":21,"title":"felis donec semper sapien a libero nam dui proin leo odio porttitor id consequat in consequat ut nulla sed","longitude":"53.47103","latitude":"54.48147","address":"2 Division Park","creatorId":"7b4052a9-a30a-4d65-9d0f-9a1f54be7970"},
{"id":"97294038-540e-4c05-9933-5f79b4d75b32","totalQuantity":92,"discount":42,"totalMoney":1,"returnMoney":88,"title":"cras non velit nec nisi vulputate nonummy maecenas tincidunt lacus at velit vivamus","longitude":"115.6143","latitude":"-8.4103","address":"91 Welch Parkway","creatorId":"b37b043d-b699-4cf7-8398-89fd9b869a4f"},
{"id":"4505705c-cbd1-4f23-be43-8ace9e9513c9","totalQuantity":61,"discount":5,"totalMoney":79,"returnMoney":72,"title":"nisl duis ac nibh fusce lacus purus aliquet at feugiat non pretium quis","longitude":"125.54583","latitude":"11.41194","address":"04 Sugar Park","creatorId":"b32d3f99-6d91-429b-bd0d-60101d52b7c1"},
{"id":"327eaca3-ca67-49e2-af19-db9b87502a2f","totalQuantity":73,"discount":23,"totalMoney":23,"returnMoney":80,"title":"interdum mauris ullamcorper purus sit amet nulla quisque arcu libero rutrum ac lobortis vel dapibus at","longitude":"114.298","latitude":"-8.2094","address":"1 Clove Junction","creatorId":"f228222f-100d-4f38-80b8-6b5ceae1b6d2"},
{"id":"efedd85a-9c8f-434f-9674-ae5e55472adf","totalQuantity":88,"discount":37,"totalMoney":19,"returnMoney":4,"title":"id turpis integer aliquet massa id lobortis convallis tortor risus dapibus augue vel","longitude":"-9.0253","latitude":"38.638","address":"2786 Cascade Place","creatorId":"963266e4-df9a-49b6-ba87-03c2d1b6f487"},
{"id":"d0d99c69-ab5b-4454-8b1b-33546a97bde6","totalQuantity":9,"discount":14,"totalMoney":20,"returnMoney":36,"title":"volutpat eleifend donec ut dolor morbi vel lectus in quam fringilla rhoncus mauris enim leo rhoncus sed","longitude":"-76.05724","latitude":"-13.49714","address":"488 Claremont Parkway","creatorId":"3e03f53b-24d0-47b2-9e1f-5420d1782c7f"},
{"id":"24b6fda5-eefc-4f7c-846e-d4792ce900c1","totalQuantity":26,"discount":46,"totalMoney":22,"returnMoney":55,"title":"mi pede malesuada in imperdiet et commodo vulputate justo in blandit ultrices enim lorem ipsum dolor sit amet consectetuer","longitude":"114.8525","latitude":"-8.3981","address":"92380 Muir Junction","creatorId":"856bf7b2-6a02-4bf2-8b99-575ef81152b4"},
{"id":"1acc1221-2d00-4784-a519-babaeafd2450","totalQuantity":93,"discount":23,"totalMoney":29,"returnMoney":74,"title":"felis donec semper sapien a libero nam dui proin leo odio porttitor id consequat in consequat ut nulla sed accumsan","longitude":"100.14464","latitude":"16.52314","address":"87769 Melby Crossing","creatorId":"3e03f53b-24d0-47b2-9e1f-5420d1782c7f"},
{"id":"a38ac550-da07-4a8c-828e-a1fc36dbd622","totalQuantity":6,"discount":79,"totalMoney":34,"returnMoney":94,"title":"lorem id ligula suspendisse ornare consequat lectus in est risus auctor sed tristique in tempus sit amet","longitude":"-70.68333","latitude":"-16.2","address":"555 Stone Corner Way","creatorId":"963266e4-df9a-49b6-ba87-03c2d1b6f487"},
{"id":"5438ab53-cd60-44f7-a2a5-c65133348c09","totalQuantity":86,"discount":99,"totalMoney":25,"returnMoney":50,"title":"elementum pellentesque quisque porta volutpat erat quisque erat eros viverra eget congue","longitude":"108.4636","latitude":"-7.0465","address":"6 Johnson Road","creatorId":"ba09e11b-9c74-40c7-8d89-d560fd228a91"},
{"id":"bbab0351-36ac-4ff7-bbfd-c47de50ddfa2","totalQuantity":91,"discount":45,"totalMoney":34,"returnMoney":76,"title":"erat volutpat in congue etiam justo etiam pretium iaculis justo in hac habitasse platea dictumst etiam","longitude":"119.6091","latitude":"-3.9728","address":"25 Hanson Avenue","creatorId":"199dffa6-5a90-4dd0-9fbf-6ade8af3071d"},
{"id":"e381d381-96f8-4388-9ef7-7f5e98d6765e","totalQuantity":58,"discount":22,"totalMoney":98,"returnMoney":6,"title":"erat eros viverra eget congue eget semper rutrum nulla nunc purus phasellus in felis donec","longitude":"121.36667","latitude":"12.95","address":"5 Crest Line Drive","creatorId":"3e03f53b-24d0-47b2-9e1f-5420d1782c7f"},
{"id":"dd8e2666-7098-4630-adf0-a0aa52828c1f","totalQuantity":87,"discount":25,"totalMoney":82,"returnMoney":23,"title":"donec diam neque vestibulum eget vulputate ut ultrices vel augue vestibulum ante ipsum primis in","longitude":"-8.5238","latitude":"41.231","address":"08508 Old Shore Terrace","creatorId":"b37b043d-b699-4cf7-8398-89fd9b869a4f"},
{"id":"3e12d332-05fb-4c9d-bf08-f7eeb197813b","totalQuantity":49,"discount":77,"totalMoney":36,"returnMoney":5,"title":"amet nunc viverra dapibus nulla suscipit ligula in lacus curabitur","longitude":"-8.5833","latitude":"39.9833","address":"52 Morning Hill","creatorId":"8d6bd71f-22ec-4b6e-8721-d72b80164dae"},
{"id":"2ae6ab5b-e8bc-4ade-933a-94771ed00aed","totalQuantity":24,"discount":94,"totalMoney":93,"returnMoney":78,"title":"sodales scelerisque mauris sit amet eros suspendisse accumsan tortor quis turpis sed ante vivamus","longitude":"28.83385","latitude":"49.71431","address":"9 Canary Place","creatorId":"e2e2a91b-c416-4355-b1ed-202da4abf22e"},
{"id":"9ad3cb23-f8d0-4ade-9ce1-fe6fd6935216","totalQuantity":10,"discount":77,"totalMoney":91,"returnMoney":63,"title":"eu nibh quisque id justo sit amet sapien dignissim vestibulum vestibulum ante ipsum primis in faucibus","longitude":"112.838","latitude":"-8.2537","address":"68359 Springs Alley","creatorId":"199dffa6-5a90-4dd0-9fbf-6ade8af3071d"},
{"id":"d8e307e8-3c13-4ce7-85e3-4c61e0f3f886","totalQuantity":84,"discount":59,"totalMoney":82,"returnMoney":11,"title":"facilisi cras non velit nec nisi vulputate nonummy maecenas tincidunt lacus at velit vivamus vel nulla eget eros","longitude":"33.1782","latitude":"-12.29292","address":"84030 Park Meadow Place","creatorId":"8d6bd71f-22ec-4b6e-8721-d72b80164dae"},
{"id":"8ff79503-1262-4510-a036-71bb5568f8e0","totalQuantity":94,"discount":77,"totalMoney":20,"returnMoney":83,"title":"lectus in est risus auctor sed tristique in tempus sit amet sem fusce consequat","longitude":"112.45972","latitude":"23.05116","address":"5 Florence Point","creatorId":"3e03f53b-24d0-47b2-9e1f-5420d1782c7f"},
{"id":"72eb9de2-0e67-4576-8277-2b623e2174af","totalQuantity":11,"discount":35,"totalMoney":77,"returnMoney":77,"title":"felis sed lacus morbi sem mauris laoreet ut rhoncus aliquet pulvinar sed nisl nunc rhoncus dui vel","longitude":"-7.8182","latitude":"40.0229","address":"80221 Mallory Alley","creatorId":"963266e4-df9a-49b6-ba87-03c2d1b6f487"},
{"id":"63504f39-a77c-4ef0-aa71-b212ba4da051","totalQuantity":47,"discount":92,"totalMoney":77,"returnMoney":88,"title":"nam ultrices libero non mattis pulvinar nulla pede ullamcorper augue a suscipit nulla elit ac nulla sed vel","longitude":"-92.4668","latitude":"44.0225","address":"611 Nelson Parkway","creatorId":"c9f60181-89cd-4922-930c-cf4fb16e22db"},
{"id":"87028dd0-1d24-45f3-b7d6-04b528e0e3f5","totalQuantity":19,"discount":2,"totalMoney":26,"returnMoney":46,"title":"in consequat ut nulla sed accumsan felis ut at dolor quis odio consequat","longitude":"-74.59499","latitude":"5.06692","address":"25641 Dovetail Drive","creatorId":"856bf7b2-6a02-4bf2-8b99-575ef81152b4"},
{"id":"90471272-2b18-4fa6-a22d-074ea9c4faaa","totalQuantity":91,"discount":49,"totalMoney":61,"returnMoney":99,"title":"ligula suspendisse ornare consequat lectus in est risus auctor sed tristique in tempus sit","longitude":"109.78298","latitude":"19.26752","address":"76 Meadow Valley Alley","creatorId":"856bf7b2-6a02-4bf2-8b99-575ef81152b4"},
{"id":"47a61e21-7307-4068-bba5-e5e8de30aae5","totalQuantity":43,"discount":48,"totalMoney":93,"returnMoney":93,"title":"mus vivamus vestibulum sagittis sapien cum sociis natoque penatibus et magnis dis parturient montes nascetur ridiculus mus etiam vel","longitude":"114.30226","latitude":"22.77072","address":"4 Doe Crossing Trail","creatorId":"e2e2a91b-c416-4355-b1ed-202da4abf22e"},
{"id":"3caaa459-3f49-445f-8bd2-a2335d41afeb","totalQuantity":58,"discount":59,"totalMoney":82,"returnMoney":18,"title":"scelerisque quam turpis adipiscing lorem vitae mattis nibh ligula nec sem duis aliquam convallis nunc proin at turpis a pede","longitude":"123.35917","latitude":"7.6325","address":"8 Coolidge Hill","creatorId":"3e03f53b-24d0-47b2-9e1f-5420d1782c7f"},
{"id":"3d172831-ce67-48e7-8ee4-da4cae4e4b87","totalQuantity":56,"discount":54,"totalMoney":55,"returnMoney":17,"title":"ac tellus semper interdum mauris ullamcorper purus sit amet nulla quisque arcu libero","longitude":"5.9111","latitude":"51.98","address":"7 Valley Edge Terrace","creatorId":"82b705b7-2c27-4a37-8994-c6ad9e52be45"},
{"id":"a24c24ea-a725-497c-8925-8e789a2d9a0a","totalQuantity":7,"discount":77,"totalMoney":85,"returnMoney":58,"title":"nulla sed accumsan felis ut at dolor quis odio consequat varius integer ac leo","longitude":"-48.65556","latitude":"-27.49417","address":"64664 Carberry Alley","creatorId":"e2e2a91b-c416-4355-b1ed-202da4abf22e"},
{"id":"e77bd978-2aad-41af-a132-c47c09f0d1a0","totalQuantity":39,"discount":96,"totalMoney":91,"returnMoney":89,"title":"vulputate vitae nisl aenean lectus pellentesque eget nunc donec quis orci eget orci vehicula condimentum","longitude":"-73.08758","latitude":"18.44232","address":"4 Loeprich Road","creatorId":"5f5b7d18-6913-4404-8071-68e9585809a6"},
{"id":"8b74150f-238b-4fce-b766-4458ee5a307b","totalQuantity":61,"discount":26,"totalMoney":28,"returnMoney":1,"title":"vel enim sit amet nunc viverra dapibus nulla suscipit ligula in lacus curabitur at ipsum ac tellus semper","longitude":"20.46186","latitude":"44.81789","address":"8 Caliangt Parkway","creatorId":"82b705b7-2c27-4a37-8994-c6ad9e52be45"},
{"id":"5e38ee43-637f-44a7-a9bf-a939da286f87","totalQuantity":97,"discount":6,"totalMoney":48,"returnMoney":20,"title":"porttitor lorem id ligula suspendisse ornare consequat lectus in est risus auctor sed tristique in tempus sit","longitude":"7.0855","latitude":"50.9226","address":"86 Forest Dale Trail","creatorId":"013853c5-edda-41cf-b436-8e976e191020"},
{"id":"177a2060-a534-42e0-b42c-5da261a25244","totalQuantity":68,"discount":98,"totalMoney":83,"returnMoney":20,"title":"non velit nec nisi vulputate nonummy maecenas tincidunt lacus at velit vivamus","longitude":"89.38268","latitude":"29.86378","address":"3252 Leroy Pass","creatorId":"7b4052a9-a30a-4d65-9d0f-9a1f54be7970"},
{"id":"7d899c2e-51a5-4168-b192-44f377db426c","totalQuantity":29,"discount":92,"totalMoney":95,"returnMoney":27,"title":"nisi volutpat eleifend donec ut dolor morbi vel lectus in quam fringilla rhoncus mauris enim","longitude":"129.75015","latitude":"46.6493","address":"25 Londonderry Park","creatorId":"e2e2a91b-c416-4355-b1ed-202da4abf22e"},
{"id":"b2fc501d-cef6-4d88-96b3-6d43b8044285","totalQuantity":49,"discount":40,"totalMoney":82,"returnMoney":98,"title":"purus sit amet nulla quisque arcu libero rutrum ac lobortis vel dapibus at diam nam tristique","longitude":"52.32536","latitude":"27.82817","address":"87634 Toban Crossing","creatorId":"2c2b7aba-1ff7-4801-acd2-47af75672fe7"},
{"id":"9e06b651-fdf0-49d7-a775-750f660a394d","totalQuantity":50,"discount":89,"totalMoney":19,"returnMoney":96,"title":"lectus pellentesque at nulla suspendisse potenti cras in purus eu magna vulputate luctus cum sociis natoque penatibus","longitude":"17.3224","latitude":"49.64987","address":"90921 American Ash Drive","creatorId":"013853c5-edda-41cf-b436-8e976e191020"},
{"id":"4442527e-6f99-4d9c-afe1-b39059d5a0b1","totalQuantity":3,"discount":1,"totalMoney":74,"returnMoney":85,"title":"lacinia nisi venenatis tristique fusce congue diam id ornare imperdiet","longitude":"-62.83455","latitude":"-32.5948","address":"35 Farragut Court","creatorId":"f228222f-100d-4f38-80b8-6b5ceae1b6d2"},
{"id":"ff0597c4-30f3-47f7-9d7c-f50dfb272aa3","totalQuantity":6,"discount":64,"totalMoney":84,"returnMoney":94,"title":"arcu libero rutrum ac lobortis vel dapibus at diam nam tristique tortor","longitude":"115.01721","latitude":"35.76318","address":"1527 Haas Circle","creatorId":"82b705b7-2c27-4a37-8994-c6ad9e52be45"},
{"id":"71c70b9a-74bb-49ab-af0c-4cf6765fa8de","totalQuantity":56,"discount":61,"totalMoney":89,"returnMoney":33,"title":"interdum eu tincidunt in leo maecenas pulvinar lobortis est phasellus sit","longitude":"-96.9692","latitude":"20.0239","address":"79 Service Junction","creatorId":"3e03f53b-24d0-47b2-9e1f-5420d1782c7f"},
{"id":"61764bb0-144d-40b0-b99c-2f74b5bd23fa","totalQuantity":51,"discount":29,"totalMoney":81,"returnMoney":75,"title":"mus etiam vel augue vestibulum rutrum rutrum neque aenean auctor","longitude":"-48.66194","latitude":"-26.90778","address":"46 Namekagon Court","creatorId":"963266e4-df9a-49b6-ba87-03c2d1b6f487"},
{"id":"34261db6-4d2f-433b-8a36-4f9ebc752aa5","totalQuantity":64,"discount":91,"totalMoney":76,"returnMoney":46,"title":"imperdiet et commodo vulputate justo in blandit ultrices enim lorem ipsum dolor sit amet consectetuer","longitude":"107.9765","latitude":"-7.2028","address":"9 Vermont Center","creatorId":"7b4052a9-a30a-4d65-9d0f-9a1f54be7970"},
{"id":"743d761d-c420-43a4-bfbe-1425129e316f","totalQuantity":61,"discount":79,"totalMoney":88,"returnMoney":63,"title":"integer ac neque duis bibendum morbi non quam nec dui luctus rutrum nulla tellus","longitude":"124.20302","latitude":"46.89623","address":"9540 Fieldstone Parkway","creatorId":"013853c5-edda-41cf-b436-8e976e191020"},
{"id":"f7687740-b3ec-4071-819f-c859cd4bd3ce","totalQuantity":38,"discount":34,"totalMoney":49,"returnMoney":97,"title":"ac diam cras pellentesque volutpat dui maecenas tristique est et tempus semper est quam pharetra magna ac consequat","longitude":"2.3399","latitude":"48.8718","address":"366 Fairfield Road","creatorId":"82b705b7-2c27-4a37-8994-c6ad9e52be45"},
{"id":"3f8ae192-848c-48fc-bf88-89c7da268c50","totalQuantity":65,"discount":85,"totalMoney":21,"returnMoney":56,"title":"non pretium quis lectus suspendisse potenti in eleifend quam a odio in hac habitasse platea dictumst","longitude":"73.95","latitude":"31.2","address":"9678 Browning Junction","creatorId":"7b4052a9-a30a-4d65-9d0f-9a1f54be7970"},
{"id":"87a540ea-f9a1-4928-a341-0b86110f0c0e","totalQuantity":13,"discount":98,"totalMoney":74,"returnMoney":35,"title":"sapien varius ut blandit non interdum in ante vestibulum ante ipsum primis in","longitude":"-5.72","latitude":"29.82","address":"49 Kropf Drive","creatorId":"e2e2a91b-c416-4355-b1ed-202da4abf22e"},
{"id":"9ae190f3-7a1d-4438-928e-ea55bdd34982","totalQuantity":1,"discount":84,"totalMoney":34,"returnMoney":7,"title":"vestibulum ante ipsum primis in faucibus orci luctus et ultrices posuere cubilia curae nulla dapibus dolor vel","longitude":"57.72556","latitude":"-20.2975","address":"5 Portage Road","creatorId":"e49cfe1f-126b-4f73-a837-4bccf7f14c06"},
{"id":"ed8189fe-320b-4fef-952f-9216e5c463bd","totalQuantity":54,"discount":35,"totalMoney":58,"returnMoney":23,"title":"mi sit amet lobortis sapien sapien non mi integer ac neque duis bibendum","longitude":"-75.16417","latitude":"5.88778","address":"4767 Old Shore Place","creatorId":"199dffa6-5a90-4dd0-9fbf-6ade8af3071d"},
{"id":"17193eb5-e13d-4aed-bb73-bfb8fa624f78","totalQuantity":34,"discount":39,"totalMoney":74,"returnMoney":10,"title":"dui vel sem sed sagittis nam congue risus semper porta volutpat quam","longitude":"114.78333","latitude":"24.9","address":"88635 Thierer Avenue","creatorId":"e2e2a91b-c416-4355-b1ed-202da4abf22e"},
{"id":"1379a90e-5f19-4909-8296-6b732029cd9b","totalQuantity":63,"discount":16,"totalMoney":76,"returnMoney":98,"title":"nascetur ridiculus mus vivamus vestibulum sagittis sapien cum sociis natoque penatibus et magnis","longitude":"16.3041","latitude":"46.55794","address":"34 Texas Alley","creatorId":"0ac7a297-3515-4301-bb82-5d3ea2e768a0"}]